Date,iso3,Continent,CountryName,lat,lon,CumulativePositive,CumulativeDeceased,CumulativeRecovered,CurrentlyPositive,Hospitalized,IntensiveCare,EUcountry,EUCPMcountry,NUTS
2021-07-09,AFG,AS,Afghanistan,33.930445,67.678945,167573645,3584483,,,,,False,False,AF
2021-07-10,ALB,EU,Albania,41.156986,20.181222,132587,2456,130047,84,7,0,False,False,AL
2021-07-09,DZA,AF,Algeria,28.026875,1.65284,167573645,3584483,,,,,False,False,DZ
2021-07-09,ASM,OC,American Samoa,-12.716089,-170.253983,167573645,3584483,,,,,False,False,
2021-07-09,AND,EU,Andorra,42.542268,1.596865,14075,127,,,0,,False,False,AD
2021-07-09,AGO,AF,Angola,-11.209451,17.880669,167573645,3584483,,,,,False,False,AO
2021-07-09,AIA,NA,Anguilla,18.225119,-63.07213,167573645,3584483,,,,,False,False,AI
2021-07-09,ATG,NA,Antigua and Barbuda,17.363183,-61.789423,167573645,3584483,,,,,False,False,AG
2021-07-09,ARG,SA,Argentina,-38.421295,-63.587403,167573645,3584483,,,,,False,False,AR
2021-07-09,ARM,AS,Armenia,40.066181,45.111108,167573645,3584483,,,,,False,False,AM
2021-07-09,ABW,NA,Aruba,12.517713,-69.965112,167573645,3584483,,,,,False,False,AW
2021-07-09,AUS,OC,Australia,-26.853388,133.275154,167573645,3584483,,,,,False,False,AU
2021-07-08,AUT,EU,Austria,47.697542,13.349319,647111,10511,632550,4050,69,42,True,True,AT
2021-07-09,AZE,AS,Azerbaijan,40.147396,47.572098,167573645,3584483,,,,,False,False,AZ
2021-07-09,BHS,NA,Bahamas,24.885993,-76.709892,167573645,3584483,,,,,False,False,BS
2021-07-09,BHR,AS,Bahrain,26.039722,50.559306,167573645,3584483,,,,,False,False,BH
2021-07-09,BGD,AS,Bangladesh,23.68764,90.351002,167573645,3584483,,,,,False,False,BD
2021-07-09,BRB,NA,Barbados,13.18355,-59.534649,167573645,3584483,,,,,False,False,BB
2021-07-09,BLR,EU,Belarus,53.711111,27.973847,425804,3236,,,,,False,False,BY
2021-07-08,BEL,EU,Belgium,50.499527,4.475402,1092477,25196,,,250,95,True,True,BE
2021-07-09,BLZ,NA,Belize,17.192929,-88.5009,167573645,3584483,,,,,False,False,BZ
2021-07-09,BEN,AF,Benin,9.322048,2.313138,167573645,3584483,,,,,False,False,BJ
2021-07-09,BMU,NA,Bermuda,32.320236,-64.774022,167573645,3584483,,,,,False,False,BM
2021-07-09,BTN,AS,Bhutan,27.515709,90.442455,167573645,3584483,,,,,False,False,BT
2021-07-04,BOL,SA,Bolivia,-16.28835,-63.549429,177754090,3842634,0,173911456,0,0,False,False,BO
2021-07-04,BES,NA,"Bonaire, Saint Eustatius and Saba",12.160842,-68.304383,177754090,3842634,0,173911456,0,0,False,False,BQ
2021-07-09,BIH,EU,Bosnia and Herzegovina,43.892652,17.670584,205145,9656,184999,10490,,,False,False,BA
2021-07-09,BWA,AF,Botswana,-22.344029,24.680158,167573645,3584483,,,,,False,False,BW
2021-07-09,BRA,SA,Brazil,-14.242915,-53.189267,167573645,3584483,,,,,False,False,BR
2021-07-09,VGB,NA,British Virgin Islands,18.573601,-64.492065,167573645,3584483,,,,,False,False,VG
2021-07-04,BRN,AS,Brunei,4.525125,114.715443,177754090,3842634,0,173911456,0,0,False,False,BN
2021-07-10,BGR,EU,Bulgaria,42.729862,25.491667,422414,18138,396309,7967,,,True,True,BG
2021-07-09,BFA,AF,Burkina Faso,12.24185,-1.55676,167573645,3584483,,,,,False,False,BF
2021-07-09,BDI,AF,Burundi,-3.387918,29.920395,167573645,3584483,,,,,False,False,BI
2021-07-09,CPV,AF,Cabo Verde,16.0026,-24.014095,167573645,3584483,,,,,False,False,CV
2021-07-09,KHM,AS,Cambodia,12.54775,104.98386,167573645,3584483,,,,,False,False,KH
2021-07-09,CMR,AF,Cameroon,7.365302,12.343439,167573645,3584483,,,,,False,False,CM
2021-07-09,CAN,NA,Canada,62.393303,-96.818145,167573645,3584483,,,,,False,False,CA
2021-07-09,CYM,NA,Cayman Islands,19.512365,-80.580025,167573645,3584483,,,,,False,False,KY
2021-07-09,CAF,AF,Central African Republic,6.614041,20.941759,167573645,3584483,,,,,False,False,CF
2021-07-09,TCD,AF,Chad,15.445718,18.738068,167573645,3584483,,,,,False,False,TD
2021-07-09,CHL,SA,Chile,-36.711951,-73.601704,167573645,3584483,,,,,False,False,CL
2021-07-09,CHN,AS,China,34.668138,104.165802,167573645,3584483,,,,,False,False,CN
2021-07-09,COL,SA,Colombia,4.577317,-74.298973,167573645,3584483,,,,,False,False,CO
2021-07-09,COM,AF,Comoros,-11.875119,43.877007,167573645,3584483,,,,,False,False,KM
2021-07-04,COD,AF,"Congo, Democratic Republic of the",-4.034788,21.755028,177754090,3842634,0,173911456,0,0,False,False,CD
2021-07-04,COG,AF,"Congo, Rep. Of",-0.662071,14.927424,177754090,3842634,0,173911456,0,0,False,False,CG
2021-07-09,COK,OC,Cook Islands,-15.983639,-159.202896,167573645,3584483,,,,,False,False,
2021-07-09,CRI,NA,Costa Rica,9.624897,-84.253308,167573645,3584483,,,,,False,False,CR
2021-07-04,CIV,AF,Cote d'Ivoire,7.546855,-5.547099,177754090,3842634,0,173911456,0,0,False,False,CI
2021-07-08,HRV,EU,Croatia,44.48732,16.460306,360593,8226,351743,624,,,True,True,HR
2021-07-09,CUB,NA,Cuba,21.527062,-79.544601,167573645,3584483,,,,,False,False,CU
2021-07-09,CUW,NA,Curaçao,12.209208,-68.945576,167573645,3584483,,,,,False,False,CW
2021-07-09,CYP,EU,Cyprus,35.167406,33.435499,83423,457,71182,11784,1849,,True,True,CY
2021-07-09,CZE,EU,Czech Republic,49.800901,15.478153,1669182,30331,1636783,2068,,,True,True,CZ
2021-07-09,DNK,EU,Denmark,56.155403,11.617223,298094,2538,290033,5523,35,0,True,True,DK
2021-07-09,DJI,AF,Djibouti,11.808375,42.595222,167573645,3584483,,,,,False,False,DJ
2021-07-09,DMA,NA,Dominica,15.416749,-61.36413,167573645,3584483,,,,,False,False,DM
2021-07-09,DOM,NA,Dominican Republic,18.736509,-70.161744,167573645,3584483,,,,,False,False,DO
2021-07-04,TLS,OC,East Timor,-8.79973,125.677345,177754090,3842634,0,173911456,0,0,False,False,TL
2021-07-09,ECU,SA,Ecuador,-1.779901,-78.131592,167573645,3584483,,,,,False,False,EC
2021-07-09,EGY,AF,Egypt,26.696362,30.246486,167573645,3584483,,,,,False,False,EG
2021-07-09,SLV,NA,El Salvador,13.796873,-88.910412,167573645,3584483,,,,,False,False,SV
2021-07-09,GNQ,AF,Equatorial Guinea,1.633925,10.341295,167573645,3584483,,,,,False,False,GQ
2021-07-09,ERI,AF,Eritrea,15.18132,39.786709,167573645,3584483,,,,,False,False,ER
2021-07-10,EST,EU,Estonia,58.596209,25.023778,131460,,,,,,True,True,EE
2021-07-09,ETH,AF,Ethiopia,9.148086,40.493059,167573645,3584483,,,,,False,False,ET
2021-07-04,FRO,EU,Faeroe Islands,61.897846,-6.928791,177754090,3842634,0,173911456,0,0,False,False,
2021-07-09,FLK,SA,Falkland Islands (Malvinas),-51.800581,-59.528839,167573645,3584483,,,,,False,False,FK
2021-07-09,FJI,OC,Fiji,-16.578041,178.416339,167573645,3584483,,,,,False,False,FJ
2021-07-10,FIN,EU,Finland,64.952416,26.068944,97946,846,0,97100,,,True,True,FI
2021-07-09,FRA,EU,France,46.232193,2.209667,5686066,84829,385950,5215287,7275,953,True,True,FR
2021-07-09,GUF,SA,French Guiana,3.951795,-53.07823,167573645,3584483,,,,,False,False,
2021-07-09,PYF,OC,French Polynesia,-17.778572,-143.903496,167573645,3584483,,,,,False,False,PF
2021-07-09,GAB,AF,Gabon,-0.828097,11.598909,167573645,3584483,,,,,False,False,GA
2021-07-09,GMB,AF,Gambia,13.445411,-15.311436,167573645,3584483,,,,,False,False,GM
2021-07-09,GEO,AS,Georgia,42.319847,43.368055,167573645,3584483,,,,,False,False,GE
2021-07-10,DEU,EU,Germany,51.165706,10.452764,3734470,91190,3634000,9280,,,True,True,DE
2021-07-09,GHA,AF,Ghana,7.955012,-1.03182,167573645,3584483,,,,,False,False,GH
2021-07-09,GIB,EU,Gibraltar,36.132235,-5.352273,167573645,3584483,,,,,False,False,GI
2021-07-09,GRC,EU,Greece,38.275283,23.810343,167573645,3584483,,,,,True,True,EL
2021-07-09,GRL,NA,Greenland,71.702379,-42.177174,167573645,3584483,,,,,False,False,
2021-07-09,GRD,NA,Grenada,12.152588,-61.689557,167573645,3584483,,,,,False,False,GD
2021-07-09,GLP,NA,Guadeloupe,16.192207,-61.272382,167573645,3584483,,,,,False,False,
2021-07-09,GUM,OC,Guam,13.446472,144.786613,167573645,3584483,,,,,False,False,GU
2021-07-09,GTM,NA,Guatemala,15.776261,-90.229744,167573645,3584483,,,,,False,False,GT
2021-07-09,GGY,EU,Guernsey,49.575693,-2.42318,167573645,3584483,,,,,False,False,GG
2021-07-09,GIN,AF,Guinea,9.934887,-11.283845,167573645,3584483,,,,,False,False,GN
2021-07-04,GNB,AF,Guinea Bissau,11.802527,-15.177029,177754090,3842634,0,173911456,0,0,False,False,GW
2021-07-09,GUY,SA,Guyana,4.866324,-58.932507,167573645,3584483,,,,,False,False,GY
2021-07-09,HTI,NA,Haiti,19.054426,-73.045971,167573645,3584483,,,,,False,False,HT
2021-07-09,VAT,EU,Holy See,41.903859,12.452041,167573645,3584483,,,,,False,False,
2021-07-09,HND,NA,Honduras,14.746333,-86.253097,167573645,3584483,,,,,False,False,HN
2021-07-09,HUN,EU,Hungary,47.164638,19.508944,808437,30004,741083,37350,87,13,True,True,HU
2021-07-09,ISL,EU,Iceland,64.963942,-19.021169,167573645,3584483,,,,,False,True,IS
2021-07-09,IND,AS,India,21.125681,82.794998,167573645,3584483,,,,,False,False,IN
2021-07-09,IDN,AS,Indonesia,-2.518722,118.015568,167573645,3584483,,,,,False,False,ID
2021-07-04,IRN,AS,Iran,32.420653,53.682375,177754090,3842634,0,173911456,0,0,False,False,IR
2021-07-09,IRQ,AS,Iraq,33.223737,43.685901,167573645,3584483,,,,,False,False,IQ
2021-07-10,IRL,EU,Ireland,53.41975,-8.240472,277316,5006,,,14430,1543,True,True,IE
2021-07-09,IMN,EU,Isle of Man,54.23782,-4.555111,167573645,3584483,,,,,False,False,IM
2021-07-09,ISR,AS,Israel,31.418388,35.073541,167573645,3584483,,,,,False,False,IL
2021-07-10,ITA,EU,Italy,41.873987,12.564167,4269885,127768,4101102,41015,1308,161,True,True,IT
2021-07-09,JAM,NA,Jamaica,18.115265,-77.27348,167573645,3584483,,,,,False,False,JM
2021-07-09,JPN,AS,Japan,34.886306,134.379711,167573645,3584483,,,,,False,False,JP
2021-07-09,JEY,EU,Jersey,49.217445,-2.141056,167573645,3584483,,,,,False,False,JE
2021-07-09,JOR,AS,Jordan,31.276778,37.130583,167573645,3584483,,,,,False,False,JO
2021-07-09,KAZ,AS,Kazakhstan,48.193764,66.902264,167573645,3584483,,,,,False,False,KZ
2021-07-09,KEN,AF,Kenya,0.170945,37.903969,167573645,3584483,,,,,False,False,KE
2021-07-09,KIR,OC,Kiribati,-3.358734,9.670395,167573645,3584483,,,,,False,False,
2021-07-04,XKX,EU,Kosovo,41.85637,21.803351,177754090,3842634,0,173911456,0,0,False,False,XK
2021-07-09,KWT,AS,Kuwait,29.310278,47.493515,167573645,3584483,,,,,False,False,KW
2021-07-09,KGZ,AS,Kyrgyzstan,41.205528,74.779888,167573645,3584483,,,,,False,False,KG
2021-07-04,LAO,AS,Laos,18.205208,103.895043,177754090,3842634,0,173911456,0,0,False,False,LA
2021-07-10,LVA,EU,Latvia,56.875584,24.607722,137863,2536,,,,,True,True,LV
2021-07-09,LBN,AS,Lebanon,33.872639,35.876736,167573645,3584483,,,,,False,False,LB
2021-07-09,LSO,AF,Lesotho,-29.620511,28.247414,167573645,3584483,,,,,False,False,LS
2021-07-09,LBR,AF,Liberia,6.452424,-9.428598,167573645,3584483,,,,,False,False,LR
2021-07-09,LBY,AF,Libya,26.338522,17.268816,167573645,3584483,,,,,False,False,LY
2021-07-09,LIE,EU,Liechtenstein,47.164696,9.555,167573645,3584483,,,,,False,False,LI
2021-07-09,LTU,EU,Lithuania,55.174112,23.906736,279167,4398,268140,6629,,,True,True,LT
2021-07-08,LUX,EU,Luxembourg,49.815764,6.131514,72010,819,,,,,True,True,LU
2021-07-09,MDG,AF,Madagascar,-18.777192,46.854328,167573645,3584483,,,,,False,False,MG
2021-07-09,MWI,AF,Malawi,-13.24627,34.295385,167573645,3584483,,,,,False,False,MW
2021-07-09,MYS,AS,Malaysia,4.109319,109.455475,167573645,3584483,,,,,False,False,MY
2021-07-09,MDV,AS,Maldives,3.202833,73.165249,167573645,3584483,,,,,False,False,MV
2021-07-09,MLI,AF,Mali,17.579757,-3.998823,167573645,3584483,,,,,False,False,ML
2021-07-10,MLT,EU,Malta,35.946151,14.384612,30960,420,30181,359,,,True,True,MT
2021-07-09,MHL,OC,Marshall Islands,10.10382,168.728363,167573645,3584483,,,,,False,False,
2021-07-09,MTQ,NA,Martinique,14.635541,-61.022814,167573645,3584483,,,,,False,False,
2021-07-09,MRT,AF,Mauritania,21.00681,-10.947098,167573645,3584483,,,,,False,False,MR
2021-07-09,MUS,AF,Mauritius,-15.422486,60.006449,167573645,3584483,,,,,False,False,MU
2021-07-09,MYT,AF,Mayotte,-12.824511,45.165455,167573645,3584483,,,,,False,False,
2021-07-09,MEX,NA,Mexico,23.624813,-102.57867,167573645,3584483,,,,,False,False,MX
2021-07-10,MDA,EU,Moldova,46.979527,28.377195,257419,6208,250384,827,,,False,False,MD
2021-07-09,MCO,EU,Monaco,43.738348,7.424451,167573645,3584483,,,,,False,False,MC
2021-07-09,MNG,AS,Mongolia,46.860945,103.836986,167573645,3584483,,,,,False,False,MN
2021-07-10,MNE,EU,Montenegro,42.710152,19.410069,100459,1620,,,27,,False,True,ME
2021-07-09,MSR,NA,Montserrat,16.749415,-62.192741,167573645,3584483,,,,,False,False,MS
2021-07-09,MAR,AF,Morocco,31.792306,-7.080168,167573645,3584483,,,,,False,False,MA
2021-07-09,MOZ,AF,Mozambique,-18.670284,35.530157,167573645,3584483,,,,,False,False,MZ
2021-07-04,MMR,AS,"Myanmar, Union of",19.163916,96.68303,177754090,3842634,0,173911456,0,0,False,False,MM
2021-07-09,NAM,AF,Namibia,-22.965662,18.486165,167573645,3584483,,,,,False,False,NA
2021-07-09,NRU,OC,Nauru,-0.52832,166.922157,167573645,3584483,,,,,False,False,NR
2021-07-09,NPL,AS,Nepal,28.395056,84.127803,167573645,3584483,,,,,False,False,NP
2021-07-10,NLD,EU,Netherlands,52.133057,5.29525,1719120,23903,0,1695217,42807,0,True,True,NL
2021-07-09,NCL,OC,New Caledonia,-21.123889,165.846901,167573645,3584483,,,,,False,False,NC
2021-07-09,NZL,OC,New Zealand,-40.9006,174.886,167573645,3584483,,,,,False,False,NZ
2021-07-09,NIC,NA,Nicaragua,12.866726,-85.214298,167573645,3584483,,,,,False,False,NI
2021-07-09,NER,AF,Niger,17.611,8.080946,167573645,3584483,,,,,False,False,NE
2021-07-09,NGA,AF,Nigeria,9.084575,8.674252,167573645,3584483,,,,,False,False,NG
2021-07-09,NIU,OC,Niue,-19.051631,-169.86309,167573645,3584483,,,,,False,False,
2021-07-09,MKD,EU,North Macedonia,41.611,21.751417,167573645,3584483,,,,,False,True,MK
2021-07-04,MNP,OC,Northern Mariana Islands,17.331835,145.47577,177754090,3842634,0,173911456,0,0,False,False,MP
2021-07-09,NOR,EU,Norway,64.583013,17.86411,130375,796,0,129579,4646,886,False,True,NO
2021-07-09,OMN,AS,Oman,21.516861,55.859291,167573645,3584483,,,,,False,False,OM
2021-07-09,PAK,AS,Pakistan,30.441861,69.359766,167573645,3584483,,,,,False,False,PK
2021-07-09,PLW,OC,Palau,5.63663,132.920475,167573645,3584483,,,,,False,False,PW
2021-07-04,PSE,AS,Palestine,31.881464,34.894978,177754090,3842634,0,173911456,0,0,False,False,PS
2021-07-09,PAN,NA,Panama,8.41771,-80.112777,167573645,3584483,,,,,False,False,PA
2021-07-09,PNG,OC,Papua New Guinea,-6.48825,148.403152,167573645,3584483,,,,,False,False,PG
2021-07-09,PRY,SA,Paraguay,-23.451389,-58.453215,167573645,3584483,,,,,False,False,PY
2021-07-09,PER,SA,Peru,-9.181352,-75.002365,167573645,3584483,,,,,False,False,PE
2021-07-09,PHL,AS,Philippines,12.881958,121.76654,167573645,3584483,,,,,False,False,PH
2021-07-10,POL,EU,Poland,51.92275,19.136875,2880755,75159,2652458,153138,,,True,True,PL
2021-07-09,PRT,EU,Portugal,39.553444,-7.839319,902510,17142,842024,43344,617,141,True,True,PT
2021-07-09,PRI,NA,Puerto Rico,18.223285,-66.592731,167573645,3584483,,,,,False,False,PR
2021-07-09,QAT,AS,Qatar,25.318833,51.19693,167573645,3584483,,,,,False,False,QA
2021-07-09,REU,AF,Réunion,-21.114533,55.532062,167573645,3584483,,,,,False,False,
2021-07-09,ROU,EU,Romania,45.947125,24.980514,1080734,34197,,,,,True,True,RO
2021-07-10,RUS,EU,Russian Fed.,61.523111,-74.9,5758300,144369,5182837,431094,0,0,False,False,RU
2021-07-09,RWA,AF,Rwanda,-1.94708,29.876376,167573645,3584483,,,,,False,False,RW
2021-07-09,SHN,AF,Saint Helena,-11.953679,-10.029991,167573645,3584483,,,,,False,False,
2021-07-09,KNA,NA,Saint Kitts and Nevis,17.257731,-62.706413,167573645,3584483,,,,,False,False,KN
2021-07-09,LCA,NA,Saint Lucia,13.904011,-60.974176,167573645,3584483,,,,,False,False,LC
2021-07-09,SPM,NA,Saint Pierre and Miquelon,46.966164,-56.336825,167573645,3584483,,,,,False,False,
2021-07-09,VCT,NA,Saint Vincent and the Grenadines,12.980909,-61.287392,167573645,3584483,,,,,False,False,VC
2021-07-04,BLM,NA,Saint-Barthélemy,17.903496,-62.831448,177754090,3842634,0,173911456,0,0,False,False,BL
2021-07-09,WSM,OC,Samoa,-13.736573,-172.10717,167573645,3584483,,,,,False,False,
2021-07-09,SMR,EU,San Marino,43.942973,12.460035,167573645,3584483,,,,,False,False,SM
2021-07-09,STP,AF,Sao Tome and Principe,0.863044,6.968272,167573645,3584483,,,,,False,False,ST
2021-07-09,SAU,AS,Saudi Arabia,23.886291,45.081139,167573645,3584483,,,,,False,False,SA
2021-07-09,SEN,AF,Senegal,14.499454,-14.445562,167573645,3584483,,,,,False,False,SN
2021-07-09,SRB,EU,Serbia,44.206802,20.911009,167573645,3584483,,,,,False,True,RS
2021-07-09,SYC,AF,Seychelles,-7.018792,51.242138,167573645,3584483,,,,,False,False,SC
2021-07-09,SLE,AF,Sierra Leone,8.464806,-11.795935,167573645,3584483,,,,,False,False,SL
2021-07-09,SGP,AS,Singapore,1.364917,103.822872,167573645,3584483,,,,,False,False,SG
2021-07-04,SXM,NA,Sint Maarten (Dutch part),18.04097,-63.078516,177754090,3842634,0,173911456,0,0,False,False,SX
2021-07-02,SVK,EU,Slovakia,48.665639,19.709097,392676,12511,,,93,16,True,True,SK
2021-07-08,SVN,EU,Slovenia,46.145528,14.974541,257700,4754,14538,238408,41,10,True,True,SI
2021-07-09,SLB,OC,Solomon Islands,-9.220083,161.244735,167573645,3584483,,,,,False,False,SB
2021-07-09,SOM,AF,Somalia,5.152149,46.199616,167573645,3584483,,,,,False,False,SO
2021-07-09,ZAF,AF,South Africa,-28.48322,24.676997,167573645,3584483,,,,,False,False,ZA
2021-07-04,KOR,AS,South Korea,35.901696,127.735889,177754090,3842634,0,173911456,0,0,False,False,KR
2021-07-09,SSD,AF,South Sudan,7.856272,30.040413,167573645,3584483,,,,,False,False,SS
2021-07-08,ESP,EU,Spain,39.896027,-2.487694,3915313,80997,,,2916,605,True,True,ES
2021-07-09,LKA,AS,Sri Lanka,7.874097,80.767098,167573645,3584483,,,,,False,False,LK
2021-07-09,SDN,AF,Sudan,15.45847,30.217636,167573645,3584483,,,,,False,False,SD
2021-07-09,SUR,SA,Suriname,3.917846,-56.032028,167573645,3584483,,,,,False,False,SR
2021-07-07,SWE,EU,Sweden,62.199806,17.637493,1092308,14642,,,,7588,True,True,SE
2021-07-10,CHE,EU,Switzerland,46.815514,8.224472,697176,10943,106533,579700,102,25,False,False,CH
2021-07-09,SYR,AS,Syrian Arab Republic,34.814902,39.056126,167573645,3584483,,,,,False,False,SY
2021-07-04,TWN,AS,Taiwan,21.901806,121.471,177754090,3842634,0,173911456,0,0,False,False,TW
2021-07-09,TJK,AS,Tajikistan,38.858194,71.26218,167573645,3584483,,,,,False,False,TJ
2021-07-04,TZA,AF,Tanzania,-6.368216,34.885195,177754090,3842634,0,173911456,0,0,False,False,TZ
2021-07-09,THA,AS,Thailand,13.036597,101.492515,167573645,3584483,,,,,False,False,TH
2021-07-09,TGO,AF,Togo,8.621697,0.829685,167573645,3584483,,,,,False,False,TG
2021-07-09,TKL,OC,Tokelau,-8.967362,-171.855881,167573645,3584483,,,,,False,False,
2021-07-09,TON,OC,Tonga,-18.509023,-174.794922,167573645,3584483,,,,,False,False,
2021-07-09,TTO,NA,Trinidad and Tobago,10.687223,-61.220852,167573645,3584483,,,,,False,False,TT
2021-07-09,TUN,AF,Tunisia,33.892166,9.561556,167573645,3584483,,,,,False,False,TN
2021-07-03,TUR,AS,Turkey,38.961516,35.25175,5440368,49874,5310769,79725,,,False,True,TR
2021-07-09,TKM,AS,Turkmenistan,38.968319,59.562873,167573645,3584483,,,,,False,False,TM
2021-07-09,TCA,NA,Turks and Caicos Islands,21.692252,-71.803756,167573645,3584483,,,,,False,False,TC
2021-07-09,TUV,OC,Tuvalu,-8.221571,177.964073,167573645,3584483,,,,,False,False,TV
2021-07-09,UGA,AF,Uganda,1.365188,32.304651,167573645,3584483,,,,,False,False,UG
2021-07-10,UKR,EU,Ukraine,48.379888,31.168139,2240753,52592,2176919,11242,,,False,False,UA
2021-07-09,ARE,AS,United Arab Emirates,24.358745,53.982494,167573645,3584483,,,,,False,False,AE
2021-07-08,GBR,EU,United Kingdom,54.633221,-3.432277,5022903,128336,0,4894567,,,False,True,UK
2021-07-09,USA,NA,United States of America,36.966428,-95.844032,167573645,3584483,,,,,False,False,US
2021-07-09,VIR,NA,United States Virgin Islands,18.036736,-64.801704,167573645,3584483,,,,,False,False,VI
2021-07-09,URY,SA,Uruguay,-32.53152,-55.758328,167573645,3584483,,,,,False,False,UY
2021-07-09,UZB,AS,Uzbekistan,41.379722,64.564459,167573645,3584483,,,,,False,False,UZ
2021-07-09,VUT,OC,Vanuatu,-16.661195,168.214882,167573645,3584483,,,,,False,False,VU
2021-07-04,VEN,SA,Venezuela,6.414107,-66.578926,177754090,3842634,0,173911456,0,0,False,False,VE
2021-07-04,VNM,AS,Vietnam,15.974222,105.806431,177754090,3842634,0,173911456,0,0,False,False,VN
2021-07-04,ESH,AF,Western Sahara,24.221916,-12.886729,177754090,3842634,0,173911456,0,0,False,False,EH
2021-07-04,WWW,WW,Whole Globe,0,0,177754090,3842634,0,173911456,0,0,False,False,
2021-07-09,YEM,AS,Yemen,15.555545,48.531539,167573645,3584483,,,,,False,False,YE
2021-07-09,ZMB,AF,Zambia,-13.151917,27.852537,167573645,3584483,,,,,False,False,ZM
2021-07-09,ZWE,AF,Zimbabwe,-19.013286,29.146667,167573645,3584483,,,,,False,False,ZW
