Date,iso3,Continent,CountryName,lat,lon,CumulativePositive,CumulativeDeceased,CumulativeRecovered,CurrentlyPositive,Hospitalized,IntensiveCare,EUcountry,EUCPMcountry,NUTS
2021-09-27,AFG,AS,Afghanistan,33.930445,67.678945,205847852,4176890,,,,,False,False,AF
2021-09-27,ALB,EU,Albania,41.156986,20.181222,168188,2653,154694,10841,160,29,False,False,AL
2021-09-27,DZA,AF,Algeria,28.026875,1.65284,205847852,4176890,,,,,False,False,DZ
2021-09-27,ASM,OC,American Samoa,-12.716089,-170.253983,205847852,4176890,,,,,False,False,
2021-09-27,AND,EU,Andorra,42.542268,1.596865,15189,130,,,0,,False,False,AD
2021-09-27,AGO,AF,Angola,-11.209451,17.880669,205847852,4176890,,,,,False,False,AO
2021-09-27,AIA,NA,Anguilla,18.225119,-63.07213,205847852,4176890,,,,,False,False,AI
2021-09-27,ATG,NA,Antigua and Barbuda,17.363183,-61.789423,205847852,4176890,,,,,False,False,AG
2021-09-27,ARG,SA,Argentina,-38.421295,-63.587403,205847852,4176890,,,,,False,False,AR
2021-09-27,ARM,AS,Armenia,40.066181,45.111108,205847852,4176890,,,,,False,False,AM
2021-09-27,ABW,NA,Aruba,12.517713,-69.965112,205847852,4176890,,,,,False,False,AW
2021-09-27,AUS,OC,Australia,-26.853388,133.275154,205847852,4176890,,,,,False,False,AU
2021-09-26,AUT,EU,Austria,47.697542,13.349319,733526,10741,693566,29219,636,225,True,True,AT
2021-09-27,AZE,AS,Azerbaijan,40.147396,47.572098,205847852,4176890,,,,,False,False,AZ
2021-09-27,BHS,NA,Bahamas,24.885993,-76.709892,205847852,4176890,,,,,False,False,BS
2021-09-27,BHR,AS,Bahrain,26.039722,50.559306,205847852,4176890,,,,,False,False,BH
2021-09-27,BGD,AS,Bangladesh,23.68764,90.351002,205847852,4176890,,,,,False,False,BD
2021-09-27,BRB,NA,Barbados,13.18355,-59.534649,205847852,4176890,,,,,False,False,BB
2021-09-27,BLR,EU,Belarus,53.711111,27.973847,532149,4102,,,,,False,False,BY
2021-09-27,BEL,EU,Belgium,50.499527,4.475402,1238358,25568,,,703,210,True,True,BE
2021-09-27,BLZ,NA,Belize,17.192929,-88.5009,205847852,4176890,,,,,False,False,BZ
2021-09-27,BEN,AF,Benin,9.322048,2.313138,205847852,4176890,,,,,False,False,BJ
2021-09-27,BMU,NA,Bermuda,32.320236,-64.774022,205847852,4176890,,,,,False,False,BM
2021-09-27,BTN,AS,Bhutan,27.515709,90.442455,205847852,4176890,,,,,False,False,BT
2021-09-19,BOL,SA,Bolivia,-16.28835,-63.549429,211967555,4407466,0,207560089,0,0,False,False,BO
2021-09-19,BES,NA,"Bonaire, Saint Eustatius and Saba",12.160842,-68.304383,211967555,4407466,0,207560089,0,0,False,False,BQ
2021-09-27,BIH,EU,Bosnia and Herzegovina,43.892652,17.670584,232237,10508,,,,,False,False,BA
2021-09-27,BWA,AF,Botswana,-22.344029,24.680158,205847852,4176890,,,,,False,False,BW
2021-09-27,BRA,SA,Brazil,-14.242915,-53.189267,205847852,4176890,,,,,False,False,BR
2021-09-27,VGB,NA,British Virgin Islands,18.573601,-64.492065,205847852,4176890,,,,,False,False,VG
2021-09-19,BRN,AS,Brunei,4.525125,114.715443,211967555,4407466,0,207560089,0,0,False,False,BN
2021-09-23,BGR,EU,Bulgaria,42.729862,25.491667,487588,20251,426266,41071,,,True,True,BG
2021-09-27,BFA,AF,Burkina Faso,12.24185,-1.55676,205847852,4176890,,,,,False,False,BF
2021-09-27,BDI,AF,Burundi,-3.387918,29.920395,205847852,4176890,,,,,False,False,BI
2021-09-27,CPV,AF,Cabo Verde,16.0026,-24.014095,205847852,4176890,,,,,False,False,CV
2021-09-27,KHM,AS,Cambodia,12.54775,104.98386,205847852,4176890,,,,,False,False,KH
2021-09-27,CMR,AF,Cameroon,7.365302,12.343439,205847852,4176890,,,,,False,False,CM
2021-09-27,CAN,NA,Canada,62.393303,-96.818145,205847852,4176890,,,,,False,False,CA
2021-09-27,CYM,NA,Cayman Islands,19.512365,-80.580025,205847852,4176890,,,,,False,False,KY
2021-09-27,CAF,AF,Central African Republic,6.614041,20.941759,205847852,4176890,,,,,False,False,CF
2021-09-27,TCD,AF,Chad,15.445718,18.738068,205847852,4176890,,,,,False,False,TD
2021-09-27,CHL,SA,Chile,-36.711951,-73.601704,205847852,4176890,,,,,False,False,CL
2021-09-27,CHN,AS,China,34.668138,104.165802,205847852,4176890,,,,,False,False,CN
2021-09-27,COL,SA,Colombia,4.577317,-74.298973,205847852,4176890,,,,,False,False,CO
2021-09-27,COM,AF,Comoros,-11.875119,43.877007,205847852,4176890,,,,,False,False,KM
2021-09-19,COD,AF,"Congo, Democratic Republic of the",-4.034788,21.755028,211967555,4407466,0,207560089,0,0,False,False,CD
2021-09-19,COG,AF,"Congo, Rep. Of",-0.662071,14.927424,211967555,4407466,0,207560089,0,0,False,False,CG
2021-09-27,COK,OC,Cook Islands,-15.983639,-159.202896,205847852,4176890,,,,,False,False,
2021-09-27,CRI,NA,Costa Rica,9.624897,-84.253308,205847852,4176890,,,,,False,False,CR
2021-09-19,CIV,AF,Cote d'Ivoire,7.546855,-5.547099,211967555,4407466,0,207560089,0,0,False,False,CI
2021-09-25,HRV,EU,Croatia,44.48732,16.460306,399054,8580,355542,34932,,,True,True,HR
2021-09-27,CUB,NA,Cuba,21.527062,-79.544601,205847852,4176890,,,,,False,False,CU
2021-09-27,CUW,NA,Curaçao,12.209208,-68.945576,205847852,4176890,,,,,False,False,CW
2021-09-26,CYP,EU,Cyprus,35.167406,33.435499,119903,635,114963,4305,2455,,True,True,CY
2021-09-27,CZE,EU,Czech Republic,49.800901,15.478153,1690288,30454,1653600,6234,,,True,True,CZ
2021-09-27,DNK,EU,Denmark,56.155403,11.617223,357370,2646,350027,4697,95,0,True,True,DK
2021-09-27,DJI,AF,Djibouti,11.808375,42.595222,205847852,4176890,,,,,False,False,DJ
2021-09-27,DMA,NA,Dominica,15.416749,-61.36413,205847852,4176890,,,,,False,False,DM
2021-09-27,DOM,NA,Dominican Republic,18.736509,-70.161744,205847852,4176890,,,,,False,False,DO
2021-09-19,TLS,OC,East Timor,-8.79973,125.677345,211967555,4407466,0,207560089,0,0,False,False,TL
2021-09-27,ECU,SA,Ecuador,-1.779901,-78.131592,205847852,4176890,,,,,False,False,EC
2021-09-27,EGY,AF,Egypt,26.696362,30.246486,205847852,4176890,,,,,False,False,EG
2021-09-27,SLV,NA,El Salvador,13.796873,-88.910412,205847852,4176890,,,,,False,False,SV
2021-09-27,GNQ,AF,Equatorial Guinea,1.633925,10.341295,205847852,4176890,,,,,False,False,GQ
2021-09-27,ERI,AF,Eritrea,15.18132,39.786709,205847852,4176890,,,,,False,False,ER
2021-09-28,EST,EU,Estonia,58.596209,25.023778,154722,,,,,,True,True,EE
2021-09-27,ETH,AF,Ethiopia,9.148086,40.493059,205847852,4176890,,,,,False,False,ET
2021-09-19,FRO,EU,Faeroe Islands,61.897846,-6.928791,211967555,4407466,0,207560089,0,0,False,False,
2021-09-27,FLK,SA,Falkland Islands (Malvinas),-51.800581,-59.528839,205847852,4176890,,,,,False,False,FK
2021-09-27,FJI,OC,Fiji,-16.578041,178.416339,205847852,4176890,,,,,False,False,FJ
2021-09-28,FIN,EU,Finland,64.952416,26.068944,140089,846,0,139243,,,True,True,FI
2021-08-12,FRA,EU,France,46.232193,2.209667,6216600,85963,397162,5733475,9465,1807,True,True,FR
2021-09-27,GUF,SA,French Guiana,3.951795,-53.07823,205847852,4176890,,,,,False,False,
2021-09-27,PYF,OC,French Polynesia,-17.778572,-143.903496,205847852,4176890,,,,,False,False,PF
2021-09-27,GAB,AF,Gabon,-0.828097,11.598909,205847852,4176890,,,,,False,False,GA
2021-09-27,GMB,AF,Gambia,13.445411,-15.311436,205847852,4176890,,,,,False,False,GM
2021-09-27,GEO,AS,Georgia,42.319847,43.368055,205847852,4176890,,,,,False,False,GE
2021-09-28,DEU,EU,Germany,51.165706,10.452764,4199402,93403,3978200,127799,,,True,True,DE
2021-09-27,GHA,AF,Ghana,7.955012,-1.03182,205847852,4176890,,,,,False,False,GH
2021-09-27,GIB,EU,Gibraltar,36.132235,-5.352273,205847852,4176890,,,,,False,False,GI
2021-09-27,GRC,EU,Greece,38.275283,23.810343,205847852,4176890,,,,,True,True,EL
2021-09-27,GRL,NA,Greenland,71.702379,-42.177174,205847852,4176890,,,,,False,False,
2021-09-27,GRD,NA,Grenada,12.152588,-61.689557,205847852,4176890,,,,,False,False,GD
2021-09-27,GLP,NA,Guadeloupe,16.192207,-61.272382,205847852,4176890,,,,,False,False,
2021-09-27,GUM,OC,Guam,13.446472,144.786613,205847852,4176890,,,,,False,False,GU
2021-09-27,GTM,NA,Guatemala,15.776261,-90.229744,205847852,4176890,,,,,False,False,GT
2021-09-27,GGY,EU,Guernsey,49.575693,-2.42318,205847852,4176890,,,,,False,False,GG
2021-09-27,GIN,AF,Guinea,9.934887,-11.283845,205847852,4176890,,,,,False,False,GN
2021-09-19,GNB,AF,Guinea Bissau,11.802527,-15.177029,211967555,4407466,0,207560089,0,0,False,False,GW
2021-09-27,GUY,SA,Guyana,4.866324,-58.932507,205847852,4176890,,,,,False,False,GY
2021-09-27,HTI,NA,Haiti,19.054426,-73.045971,205847852,4176890,,,,,False,False,HT
2021-09-27,VAT,EU,Holy See,41.903859,12.452041,205847852,4176890,,,,,False,False,
2021-09-27,HND,NA,Honduras,14.746333,-86.253097,205847852,4176890,,,,,False,False,HN
2021-09-28,HUN,EU,Hungary,47.164638,19.508944,821526,30179,783815,7532,513,74,True,True,HU
2021-09-27,ISL,EU,Iceland,64.963942,-19.021169,205847852,4176890,,,,,False,True,IS
2021-09-27,IND,AS,India,21.125681,82.794998,205847852,4176890,,,,,False,False,IN
2021-09-27,IDN,AS,Indonesia,-2.518722,118.015568,205847852,4176890,,,,,False,False,ID
2021-09-19,IRN,AS,Iran,32.420653,53.682375,211967555,4407466,0,207560089,0,0,False,False,IR
2021-09-27,IRQ,AS,Iraq,33.223737,43.685901,205847852,4176890,,,,,False,False,IQ
2021-09-27,IRL,EU,Ireland,53.41975,-8.240472,385721,5209,,,16432,1837,True,True,IE
2021-09-27,IMN,EU,Isle of Man,54.23782,-4.555111,205847852,4176890,,,,,False,False,IM
2021-09-27,ISR,AS,Israel,31.418388,35.073541,205847852,4176890,,,,,False,False,IL
2021-09-27,ITA,EU,Italy,41.873987,12.564167,4662087,130742,4430265,101080,3975,488,True,True,IT
2021-09-27,JAM,NA,Jamaica,18.115265,-77.27348,205847852,4176890,,,,,False,False,JM
2021-09-27,JPN,AS,Japan,34.886306,134.379711,205847852,4176890,,,,,False,False,JP
2021-09-27,JEY,EU,Jersey,49.217445,-2.141056,205847852,4176890,,,,,False,False,JE
2021-09-27,JOR,AS,Jordan,31.276778,37.130583,205847852,4176890,,,,,False,False,JO
2021-09-27,KAZ,AS,Kazakhstan,48.193764,66.902264,205847852,4176890,,,,,False,False,KZ
2021-09-27,KEN,AF,Kenya,0.170945,37.903969,205847852,4176890,,,,,False,False,KE
2021-09-27,KIR,OC,Kiribati,-3.358734,9.670395,205847852,4176890,,,,,False,False,
2021-09-19,XKX,EU,Kosovo,41.85637,21.803351,211967555,4407466,0,207560089,0,0,False,False,XK
2021-09-27,KWT,AS,Kuwait,29.310278,47.493515,205847852,4176890,,,,,False,False,KW
2021-09-27,KGZ,AS,Kyrgyzstan,41.205528,74.779888,205847852,4176890,,,,,False,False,KG
2021-09-19,LAO,AS,Laos,18.205208,103.895043,211967555,4407466,0,207560089,0,0,False,False,LA
2021-09-28,LVA,EU,Latvia,56.875584,24.607722,155880,2700,,,,,True,True,LV
2021-09-27,LBN,AS,Lebanon,33.872639,35.876736,205847852,4176890,,,,,False,False,LB
2021-09-27,LSO,AF,Lesotho,-29.620511,28.247414,205847852,4176890,,,,,False,False,LS
2021-09-27,LBR,AF,Liberia,6.452424,-9.428598,205847852,4176890,,,,,False,False,LR
2021-09-27,LBY,AF,Libya,26.338522,17.268816,205847852,4176890,,,,,False,False,LY
2021-09-27,LIE,EU,Liechtenstein,47.164696,9.555,205847852,4176890,,,,,False,False,LI
2021-09-27,LTU,EU,Lithuania,55.174112,23.906736,327896,4946,299479,23471,,,True,True,LT
2021-09-26,LUX,EU,Luxembourg,49.815764,6.131514,77930,835,,,,,True,True,LU
2021-09-27,MDG,AF,Madagascar,-18.777192,46.854328,205847852,4176890,,,,,False,False,MG
2021-09-27,MWI,AF,Malawi,-13.24627,34.295385,205847852,4176890,,,,,False,False,MW
2021-09-27,MYS,AS,Malaysia,4.109319,109.455475,205847852,4176890,,,,,False,False,MY
2021-09-27,MDV,AS,Maldives,3.202833,73.165249,205847852,4176890,,,,,False,False,MV
2021-09-27,MLI,AF,Mali,17.579757,-3.998823,205847852,4176890,,,,,False,False,ML
2021-09-28,MLT,EU,Malta,35.946151,14.384612,37119,457,35896,766,,,True,True,MT
2021-09-27,MHL,OC,Marshall Islands,10.10382,168.728363,205847852,4176890,,,,,False,False,
2021-09-27,MTQ,NA,Martinique,14.635541,-61.022814,205847852,4176890,,,,,False,False,
2021-09-27,MRT,AF,Mauritania,21.00681,-10.947098,205847852,4176890,,,,,False,False,MR
2021-09-27,MUS,AF,Mauritius,-15.422486,60.006449,205847852,4176890,,,,,False,False,MU
2021-09-27,MYT,AF,Mayotte,-12.824511,45.165455,205847852,4176890,,,,,False,False,
2021-09-27,MEX,NA,Mexico,23.624813,-102.57867,205847852,4176890,,,,,False,False,MX
2021-09-27,MDA,EU,Moldova,46.979527,28.377195,290043,6713,273920,9410,,,False,False,MD
2021-09-27,MCO,EU,Monaco,43.738348,7.424451,205847852,4176890,,,,,False,False,MC
2021-09-27,MNG,AS,Mongolia,46.860945,103.836986,205847852,4176890,,,,,False,False,MN
2021-09-27,MNE,EU,Montenegro,42.710152,19.410069,129990,1906,,,0,,False,True,ME
2021-09-27,MSR,NA,Montserrat,16.749415,-62.192741,205847852,4176890,,,,,False,False,MS
2021-09-27,MAR,AF,Morocco,31.792306,-7.080168,205847852,4176890,,,,,False,False,MA
2021-09-27,MOZ,AF,Mozambique,-18.670284,35.530157,205847852,4176890,,,,,False,False,MZ
2021-09-19,MMR,AS,"Myanmar, Union of",19.163916,96.68303,211967555,4407466,0,207560089,0,0,False,False,MM
2021-09-27,NAM,AF,Namibia,-22.965662,18.486165,205847852,4176890,,,,,False,False,NA
2021-09-27,NRU,OC,Nauru,-0.52832,166.922157,205847852,4176890,,,,,False,False,NR
2021-09-27,NPL,AS,Nepal,28.395056,84.127803,205847852,4176890,,,,,False,False,NP
2021-09-27,NLD,EU,Netherlands,52.133057,5.29525,1997885,24292,0,1973593,44635,0,True,True,NL
2021-09-27,NCL,OC,New Caledonia,-21.123889,165.846901,205847852,4176890,,,,,False,False,NC
2021-09-27,NZL,OC,New Zealand,-40.9006,174.886,205847852,4176890,,,,,False,False,NZ
2021-09-27,NIC,NA,Nicaragua,12.866726,-85.214298,205847852,4176890,,,,,False,False,NI
2021-09-27,NER,AF,Niger,17.611,8.080946,205847852,4176890,,,,,False,False,NE
2021-09-27,NGA,AF,Nigeria,9.084575,8.674252,205847852,4176890,,,,,False,False,NG
2021-09-27,NIU,OC,Niue,-19.051631,-169.86309,205847852,4176890,,,,,False,False,
2021-09-27,MKD,EU,North Macedonia,41.611,21.751417,205847852,4176890,,,,,False,True,MK
2021-09-19,MNP,OC,Northern Mariana Islands,17.331835,145.47577,211967555,4407466,0,207560089,0,0,False,False,MP
2021-09-27,NOR,EU,Norway,64.583013,17.86411,183453,850,0,182603,5182,980,False,True,NO
2021-09-27,OMN,AS,Oman,21.516861,55.859291,205847852,4176890,,,,,False,False,OM
2021-09-27,PAK,AS,Pakistan,30.441861,69.359766,205847852,4176890,,,,,False,False,PK
2021-09-27,PLW,OC,Palau,5.63663,132.920475,205847852,4176890,,,,,False,False,PW
2021-09-19,PSE,AS,Palestine,31.881464,34.894978,211967555,4407466,0,207560089,0,0,False,False,PS
2021-09-27,PAN,NA,Panama,8.41771,-80.112777,205847852,4176890,,,,,False,False,PA
2021-09-27,PNG,OC,Papua New Guinea,-6.48825,148.403152,205847852,4176890,,,,,False,False,PG
2021-09-27,PRY,SA,Paraguay,-23.451389,-58.453215,205847852,4176890,,,,,False,False,PY
2021-09-27,PER,SA,Peru,-9.181352,-75.002365,205847852,4176890,,,,,False,False,PE
2021-09-27,PHL,AS,Philippines,12.881958,121.76654,205847852,4176890,,,,,False,False,PH
2021-09-28,POL,EU,Poland,51.92275,19.136875,2904631,75601,2662115,166915,,,True,True,PL
2021-08-02,PRT,EU,Portugal,39.553444,-7.839319,1884554,34551,0,1850003,0,0,True,True,PT
2021-09-27,PRI,NA,Puerto Rico,18.223285,-66.592731,205847852,4176890,,,,,False,False,PR
2021-09-27,QAT,AS,Qatar,25.318833,51.19693,205847852,4176890,,,,,False,False,QA
2021-09-27,REU,AF,Réunion,-21.114533,55.532062,205847852,4176890,,,,,False,False,
2021-09-28,ROU,EU,Romania,45.947125,24.980514,1200588,36658,,,,,True,True,RO
2021-09-27,RUS,EU,Russian Fed.,61.523111,-74.9,7443149,206795,6618117,618237,0,0,False,False,RU
2021-09-27,RWA,AF,Rwanda,-1.94708,29.876376,205847852,4176890,,,,,False,False,RW
2021-09-27,SHN,AF,Saint Helena,-11.953679,-10.029991,205847852,4176890,,,,,False,False,
2021-09-27,KNA,NA,Saint Kitts and Nevis,17.257731,-62.706413,205847852,4176890,,,,,False,False,KN
2021-09-27,LCA,NA,Saint Lucia,13.904011,-60.974176,205847852,4176890,,,,,False,False,LC
2021-09-27,SPM,NA,Saint Pierre and Miquelon,46.966164,-56.336825,205847852,4176890,,,,,False,False,
2021-09-27,VCT,NA,Saint Vincent and the Grenadines,12.980909,-61.287392,205847852,4176890,,,,,False,False,VC
2021-09-19,BLM,NA,Saint-Barthélemy,17.903496,-62.831448,211967555,4407466,0,207560089,0,0,False,False,BL
2021-09-27,WSM,OC,Samoa,-13.736573,-172.10717,205847852,4176890,,,,,False,False,
2021-09-27,SMR,EU,San Marino,43.942973,12.460035,205847852,4176890,,,,,False,False,SM
2021-09-27,STP,AF,Sao Tome and Principe,0.863044,6.968272,205847852,4176890,,,,,False,False,ST
2021-09-27,SAU,AS,Saudi Arabia,23.886291,45.081139,205847852,4176890,,,,,False,False,SA
2021-09-27,SEN,AF,Senegal,14.499454,-14.445562,205847852,4176890,,,,,False,False,SN
2021-09-27,SRB,EU,Serbia,44.206802,20.911009,205847852,4176890,,,,,False,True,RS
2021-09-27,SYC,AF,Seychelles,-7.018792,51.242138,205847852,4176890,,,,,False,False,SC
2021-09-27,SLE,AF,Sierra Leone,8.464806,-11.795935,205847852,4176890,,,,,False,False,SL
2021-09-27,SGP,AS,Singapore,1.364917,103.822872,205847852,4176890,,,,,False,False,SG
2021-09-19,SXM,NA,Sint Maarten (Dutch part),18.04097,-63.078516,211967555,4407466,0,207560089,0,0,False,False,SX
2021-09-28,SVK,EU,Slovakia,48.665639,19.709097,409621,12606,,,464,66,True,True,SK
2021-09-26,SVN,EU,Slovenia,46.145528,14.974541,289951,4862,15315,269774,426,108,True,True,SI
2021-09-27,SLB,OC,Solomon Islands,-9.220083,161.244735,205847852,4176890,,,,,False,False,SB
2021-09-27,SOM,AF,Somalia,5.152149,46.199616,205847852,4176890,,,,,False,False,SO
2021-09-27,ZAF,AF,South Africa,-28.48322,24.676997,205847852,4176890,,,,,False,False,ZA
2021-09-19,KOR,AS,South Korea,35.901696,127.735889,211967555,4407466,0,207560089,0,0,False,False,KR
2021-09-27,SSD,AF,South Sudan,7.856272,30.040413,205847852,4176890,,,,,False,False,SS
2021-09-27,ESP,EU,Spain,39.896027,-2.487694,4951640,86298,,,2867,805,True,True,ES
2021-09-27,LKA,AS,Sri Lanka,7.874097,80.767098,205847852,4176890,,,,,False,False,LK
2021-09-27,SDN,AF,Sudan,15.45847,30.217636,205847852,4176890,,,,,False,False,SD
2021-09-27,SUR,SA,Suriname,3.917846,-56.032028,205847852,4176890,,,,,False,False,SR
2021-09-23,SWE,EU,Sweden,62.199806,17.637493,1149407,14821,,,,7825,True,True,SE
2021-09-28,CHE,EU,Switzerland,46.815514,8.224472,827801,11224,123673,692904,671,187,False,False,CH
2021-09-27,SYR,AS,Syrian Arab Republic,34.814902,39.056126,205847852,4176890,,,,,False,False,SY
2021-09-19,TWN,AS,Taiwan,21.901806,121.471,211967555,4407466,0,207560089,0,0,False,False,TW
2021-09-27,TJK,AS,Tajikistan,38.858194,71.26218,205847852,4176890,,,,,False,False,TJ
2021-09-19,TZA,AF,Tanzania,-6.368216,34.885195,211967555,4407466,0,207560089,0,0,False,False,TZ
2021-09-27,THA,AS,Thailand,13.036597,101.492515,205847852,4176890,,,,,False,False,TH
2021-09-27,TGO,AF,Togo,8.621697,0.829685,205847852,4176890,,,,,False,False,TG
2021-09-27,TKL,OC,Tokelau,-8.967362,-171.855881,205847852,4176890,,,,,False,False,
2021-09-27,TON,OC,Tonga,-18.509023,-174.794922,205847852,4176890,,,,,False,False,
2021-09-27,TTO,NA,Trinidad and Tobago,10.687223,-61.220852,205847852,4176890,,,,,False,False,TT
2021-09-27,TUN,AF,Tunisia,33.892166,9.561556,205847852,4176890,,,,,False,False,TN
2021-08-03,TUR,AS,Turkey,38.961516,35.25175,5770833,51519,,,,,False,True,TR
2021-09-27,TKM,AS,Turkmenistan,38.968319,59.562873,205847852,4176890,,,,,False,False,TM
2021-09-27,TCA,NA,Turks and Caicos Islands,21.692252,-71.803756,205847852,4176890,,,,,False,False,TC
2021-09-27,TUV,OC,Tuvalu,-8.221571,177.964073,205847852,4176890,,,,,False,False,TV
2021-09-27,UGA,AF,Uganda,1.365188,32.304651,205847852,4176890,,,,,False,False,UG
2021-09-28,UKR,EU,Ukraine,48.379888,31.168139,2401956,55863,2248071,98022,,,False,False,UA
2021-09-27,ARE,AS,United Arab Emirates,24.358745,53.982494,205847852,4176890,,,,,False,False,AE
2021-09-24,GBR,EU,United Kingdom,54.633221,-3.432277,8094351,135983,0,7958368,,,False,True,UK
2021-09-27,USA,NA,United States of America,36.966428,-95.844032,205847852,4176890,,,,,False,False,US
2021-09-27,VIR,NA,United States Virgin Islands,18.036736,-64.801704,205847852,4176890,,,,,False,False,VI
2021-09-27,URY,SA,Uruguay,-32.53152,-55.758328,205847852,4176890,,,,,False,False,UY
2021-09-27,UZB,AS,Uzbekistan,41.379722,64.564459,205847852,4176890,,,,,False,False,UZ
2021-09-27,VUT,OC,Vanuatu,-16.661195,168.214882,205847852,4176890,,,,,False,False,VU
2021-09-19,VEN,SA,Venezuela,6.414107,-66.578926,211967555,4407466,0,207560089,0,0,False,False,VE
2021-09-19,VNM,AS,Vietnam,15.974222,105.806431,211967555,4407466,0,207560089,0,0,False,False,VN
2021-09-19,ESH,AF,Western Sahara,24.221916,-12.886729,211967555,4407466,0,207560089,0,0,False,False,EH
2021-09-19,WWW,WW,Whole Globe,0,0,211967555,4407466,0,207560089,0,0,False,False,
2021-09-27,YEM,AS,Yemen,15.555545,48.531539,205847852,4176890,,,,,False,False,YE
2021-09-27,ZMB,AF,Zambia,-13.151917,27.852537,205847852,4176890,,,,,False,False,ZM
2021-09-27,ZWE,AF,Zimbabwe,-19.013286,29.146667,205847852,4176890,,,,,False,False,ZW
