Date,iso3,Continent,CountryName,lat,lon,CumulativePositive,CumulativeDeceased,CumulativeRecovered,CurrentlyPositive,Hospitalized,IntensiveCare,EUcountry,EUCPMcountry,NUTS
2021-08-12,AFG,AS,Afghanistan,33.930445,67.678945,183481574,3842275,,,,,False,False,AF
2021-08-12,ALB,EU,Albania,41.156986,20.181222,134487,2460,130503,1524,34,0,False,False,AL
2021-08-12,DZA,AF,Algeria,28.026875,1.65284,183481574,3842275,,,,,False,False,DZ
2021-08-12,ASM,OC,American Samoa,-12.716089,-170.253983,183481574,3842275,,,,,False,False,
2021-08-12,AND,EU,Andorra,42.542268,1.596865,14908,129,,,5,,False,False,AD
2021-08-12,AGO,AF,Angola,-11.209451,17.880669,183481574,3842275,,,,,False,False,AO
2021-08-12,AIA,NA,Anguilla,18.225119,-63.07213,183481574,3842275,,,,,False,False,AI
2021-08-12,ATG,NA,Antigua and Barbuda,17.363183,-61.789423,183481574,3842275,,,,,False,False,AG
2021-08-12,ARG,SA,Argentina,-38.421295,-63.587403,183481574,3842275,,,,,False,False,AR
2021-08-12,ARM,AS,Armenia,40.066181,45.111108,183481574,3842275,,,,,False,False,AM
2021-08-12,ABW,NA,Aruba,12.517713,-69.965112,183481574,3842275,,,,,False,False,AW
2021-08-12,AUS,OC,Australia,-26.853388,133.275154,183481574,3842275,,,,,False,False,AU
2021-08-11,AUT,EU,Austria,47.697542,13.349319,661448,10554,640863,10031,146,48,True,True,AT
2021-08-12,AZE,AS,Azerbaijan,40.147396,47.572098,183481574,3842275,,,,,False,False,AZ
2021-08-12,BHS,NA,Bahamas,24.885993,-76.709892,183481574,3842275,,,,,False,False,BS
2021-08-12,BHR,AS,Bahrain,26.039722,50.559306,183481574,3842275,,,,,False,False,BH
2021-08-12,BGD,AS,Bangladesh,23.68764,90.351002,183481574,3842275,,,,,False,False,BD
2021-08-12,BRB,NA,Barbados,13.18355,-59.534649,183481574,3842275,,,,,False,False,BB
2021-08-12,BLR,EU,Belarus,53.711111,27.973847,457422,3572,,,,,False,False,BY
2021-08-10,BEL,EU,Belgium,50.499527,4.475402,1143127,25279,,,467,121,True,True,BE
2021-08-12,BLZ,NA,Belize,17.192929,-88.5009,183481574,3842275,,,,,False,False,BZ
2021-08-12,BEN,AF,Benin,9.322048,2.313138,183481574,3842275,,,,,False,False,BJ
2021-08-12,BMU,NA,Bermuda,32.320236,-64.774022,183481574,3842275,,,,,False,False,BM
2021-08-12,BTN,AS,Bhutan,27.515709,90.442455,183481574,3842275,,,,,False,False,BT
2021-08-08,BOL,SA,Bolivia,-16.28835,-63.549429,193613708,4107423,0,189506285,0,0,False,False,BO
2021-08-08,BES,NA,"Bonaire, Saint Eustatius and Saba",12.160842,-68.304383,193613708,4107423,0,189506285,0,0,False,False,BQ
2021-08-11,BIH,EU,Bosnia and Herzegovina,43.892652,17.670584,206655,9694,191841,5120,,,False,False,BA
2021-08-12,BWA,AF,Botswana,-22.344029,24.680158,183481574,3842275,,,,,False,False,BW
2021-08-12,BRA,SA,Brazil,-14.242915,-53.189267,183481574,3842275,,,,,False,False,BR
2021-08-12,VGB,NA,British Virgin Islands,18.573601,-64.492065,183481574,3842275,,,,,False,False,VG
2021-08-08,BRN,AS,Brunei,4.525125,114.715443,193613708,4107423,0,189506285,0,0,False,False,BN
2021-08-12,BGR,EU,Bulgaria,42.729862,25.491667,430410,18306,399527,12577,,,True,True,BG
2021-08-12,BFA,AF,Burkina Faso,12.24185,-1.55676,183481574,3842275,,,,,False,False,BF
2021-08-12,BDI,AF,Burundi,-3.387918,29.920395,183481574,3842275,,,,,False,False,BI
2021-08-12,CPV,AF,Cabo Verde,16.0026,-24.014095,183481574,3842275,,,,,False,False,CV
2021-08-12,KHM,AS,Cambodia,12.54775,104.98386,183481574,3842275,,,,,False,False,KH
2021-08-12,CMR,AF,Cameroon,7.365302,12.343439,183481574,3842275,,,,,False,False,CM
2021-08-12,CAN,NA,Canada,62.393303,-96.818145,183481574,3842275,,,,,False,False,CA
2021-08-12,CYM,NA,Cayman Islands,19.512365,-80.580025,183481574,3842275,,,,,False,False,KY
2021-08-12,CAF,AF,Central African Republic,6.614041,20.941759,183481574,3842275,,,,,False,False,CF
2021-08-12,TCD,AF,Chad,15.445718,18.738068,183481574,3842275,,,,,False,False,TD
2021-08-12,CHL,SA,Chile,-36.711951,-73.601704,183481574,3842275,,,,,False,False,CL
2021-08-12,CHN,AS,China,34.668138,104.165802,183481574,3842275,,,,,False,False,CN
2021-08-12,COL,SA,Colombia,4.577317,-74.298973,183481574,3842275,,,,,False,False,CO
2021-08-12,COM,AF,Comoros,-11.875119,43.877007,183481574,3842275,,,,,False,False,KM
2021-08-08,COD,AF,"Congo, Democratic Republic of the",-4.034788,21.755028,193613708,4107423,0,189506285,0,0,False,False,CD
2021-08-08,COG,AF,"Congo, Rep. Of",-0.662071,14.927424,193613708,4107423,0,189506285,0,0,False,False,CG
2021-08-12,COK,OC,Cook Islands,-15.983639,-159.202896,183481574,3842275,,,,,False,False,
2021-08-12,CRI,NA,Costa Rica,9.624897,-84.253308,183481574,3842275,,,,,False,False,CR
2021-08-08,CIV,AF,Cote d'Ivoire,7.546855,-5.547099,193613708,4107423,0,189506285,0,0,False,False,CI
2021-08-10,HRV,EU,Croatia,44.48732,16.460306,365335,8275,355542,1518,,,True,True,HR
2021-08-12,CUB,NA,Cuba,21.527062,-79.544601,183481574,3842275,,,,,False,False,CU
2021-08-12,CUW,NA,Curaçao,12.209208,-68.945576,183481574,3842275,,,,,False,False,CW
2021-08-11,CYP,EU,Cyprus,35.167406,33.435499,107887,532,86065,21290,2262,,True,True,CY
2021-08-11,CZE,EU,Czech Republic,49.800901,15.478153,1675675,30372,1642877,2426,,,True,True,CZ
2021-08-12,DNK,EU,Denmark,56.155403,11.617223,327972,2555,312907,12510,113,0,True,True,DK
2021-08-12,DJI,AF,Djibouti,11.808375,42.595222,183481574,3842275,,,,,False,False,DJ
2021-08-12,DMA,NA,Dominica,15.416749,-61.36413,183481574,3842275,,,,,False,False,DM
2021-08-12,DOM,NA,Dominican Republic,18.736509,-70.161744,183481574,3842275,,,,,False,False,DO
2021-08-08,TLS,OC,East Timor,-8.79973,125.677345,193613708,4107423,0,189506285,0,0,False,False,TL
2021-08-12,ECU,SA,Ecuador,-1.779901,-78.131592,183481574,3842275,,,,,False,False,EC
2021-08-12,EGY,AF,Egypt,26.696362,30.246486,183481574,3842275,,,,,False,False,EG
2021-08-12,SLV,NA,El Salvador,13.796873,-88.910412,183481574,3842275,,,,,False,False,SV
2021-08-12,GNQ,AF,Equatorial Guinea,1.633925,10.341295,183481574,3842275,,,,,False,False,GQ
2021-08-12,ERI,AF,Eritrea,15.18132,39.786709,183481574,3842275,,,,,False,False,ER
2021-08-12,EST,EU,Estonia,58.596209,25.023778,136228,,,,,,True,True,EE
2021-08-12,ETH,AF,Ethiopia,9.148086,40.493059,183481574,3842275,,,,,False,False,ET
2021-08-08,FRO,EU,Faeroe Islands,61.897846,-6.928791,193613708,4107423,0,189506285,0,0,False,False,
2021-08-12,FLK,SA,Falkland Islands (Malvinas),-51.800581,-59.528839,183481574,3842275,,,,,False,False,FK
2021-08-12,FJI,OC,Fiji,-16.578041,178.416339,183481574,3842275,,,,,False,False,FJ
2021-08-12,FIN,EU,Finland,64.952416,26.068944,115307,846,0,114461,,,True,True,FI
2021-08-12,FRA,EU,France,46.232193,2.209667,6216600,85963,397162,5733475,9465,1807,True,True,FR
2021-08-12,GUF,SA,French Guiana,3.951795,-53.07823,183481574,3842275,,,,,False,False,
2021-08-12,PYF,OC,French Polynesia,-17.778572,-143.903496,183481574,3842275,,,,,False,False,PF
2021-08-12,GAB,AF,Gabon,-0.828097,11.598909,183481574,3842275,,,,,False,False,GA
2021-08-12,GMB,AF,Gambia,13.445411,-15.311436,183481574,3842275,,,,,False,False,GM
2021-08-12,GEO,AS,Georgia,42.319847,43.368055,183481574,3842275,,,,,False,False,GE
2021-08-12,DEU,EU,Germany,51.165706,10.452764,3805065,91834,3673700,39531,,,True,True,DE
2021-08-12,GHA,AF,Ghana,7.955012,-1.03182,183481574,3842275,,,,,False,False,GH
2021-08-12,GIB,EU,Gibraltar,36.132235,-5.352273,183481574,3842275,,,,,False,False,GI
2021-08-12,GRC,EU,Greece,38.275283,23.810343,183481574,3842275,,,,,True,True,EL
2021-08-12,GRL,NA,Greenland,71.702379,-42.177174,183481574,3842275,,,,,False,False,
2021-08-12,GRD,NA,Grenada,12.152588,-61.689557,183481574,3842275,,,,,False,False,GD
2021-08-12,GLP,NA,Guadeloupe,16.192207,-61.272382,183481574,3842275,,,,,False,False,
2021-08-12,GUM,OC,Guam,13.446472,144.786613,183481574,3842275,,,,,False,False,GU
2021-08-12,GTM,NA,Guatemala,15.776261,-90.229744,183481574,3842275,,,,,False,False,GT
2021-08-12,GGY,EU,Guernsey,49.575693,-2.42318,183481574,3842275,,,,,False,False,GG
2021-08-12,GIN,AF,Guinea,9.934887,-11.283845,183481574,3842275,,,,,False,False,GN
2021-08-08,GNB,AF,Guinea Bissau,11.802527,-15.177029,193613708,4107423,0,189506285,0,0,False,False,GW
2021-08-12,GUY,SA,Guyana,4.866324,-58.932507,183481574,3842275,,,,,False,False,GY
2021-08-12,HTI,NA,Haiti,19.054426,-73.045971,183481574,3842275,,,,,False,False,HT
2021-08-12,VAT,EU,Holy See,41.903859,12.452041,183481574,3842275,,,,,False,False,
2021-08-12,HND,NA,Honduras,14.746333,-86.253097,183481574,3842275,,,,,False,False,HN
2021-08-12,HUN,EU,Hungary,47.164638,19.508944,810212,30037,763801,16374,80,15,True,True,HU
2021-08-12,ISL,EU,Iceland,64.963942,-19.021169,183481574,3842275,,,,,False,True,IS
2021-08-12,IND,AS,India,21.125681,82.794998,183481574,3842275,,,,,False,False,IN
2021-08-12,IDN,AS,Indonesia,-2.518722,118.015568,183481574,3842275,,,,,False,False,ID
2021-08-08,IRN,AS,Iran,32.420653,53.682375,193613708,4107423,0,189506285,0,0,False,False,IR
2021-08-12,IRQ,AS,Iraq,33.223737,43.685901,183481574,3842275,,,,,False,False,IQ
2021-08-12,IRL,EU,Ireland,53.41975,-8.240472,318937,5059,,,14430,1543,True,True,IE
2021-08-12,IMN,EU,Isle of Man,54.23782,-4.555111,183481574,3842275,,,,,False,False,IM
2021-08-12,ISR,AS,Israel,31.418388,35.073541,183481574,3842275,,,,,False,False,IL
2021-08-12,ITA,EU,Italy,41.873987,12.564167,4420429,128334,4170810,121285,3327,352,True,True,IT
2021-08-12,JAM,NA,Jamaica,18.115265,-77.27348,183481574,3842275,,,,,False,False,JM
2021-08-12,JPN,AS,Japan,34.886306,134.379711,183481574,3842275,,,,,False,False,JP
2021-08-12,JEY,EU,Jersey,49.217445,-2.141056,183481574,3842275,,,,,False,False,JE
2021-08-12,JOR,AS,Jordan,31.276778,37.130583,183481574,3842275,,,,,False,False,JO
2021-08-12,KAZ,AS,Kazakhstan,48.193764,66.902264,183481574,3842275,,,,,False,False,KZ
2021-08-12,KEN,AF,Kenya,0.170945,37.903969,183481574,3842275,,,,,False,False,KE
2021-08-12,KIR,OC,Kiribati,-3.358734,9.670395,183481574,3842275,,,,,False,False,
2021-08-08,XKX,EU,Kosovo,41.85637,21.803351,193613708,4107423,0,189506285,0,0,False,False,XK
2021-08-12,KWT,AS,Kuwait,29.310278,47.493515,183481574,3842275,,,,,False,False,KW
2021-08-12,KGZ,AS,Kyrgyzstan,41.205528,74.779888,183481574,3842275,,,,,False,False,KG
2021-08-08,LAO,AS,Laos,18.205208,103.895043,193613708,4107423,0,189506285,0,0,False,False,LA
2021-08-12,LVA,EU,Latvia,56.875584,24.607722,139814,2561,,,,,True,True,LV
2021-08-12,LBN,AS,Lebanon,33.872639,35.876736,183481574,3842275,,,,,False,False,LB
2021-08-12,LSO,AF,Lesotho,-29.620511,28.247414,183481574,3842275,,,,,False,False,LS
2021-08-12,LBR,AF,Liberia,6.452424,-9.428598,183481574,3842275,,,,,False,False,LR
2021-08-12,LBY,AF,Libya,26.338522,17.268816,183481574,3842275,,,,,False,False,LY
2021-08-12,LIE,EU,Liechtenstein,47.164696,9.555,183481574,3842275,,,,,False,False,LI
2021-08-11,LTU,EU,Lithuania,55.174112,23.906736,288173,4438,271957,11778,,,True,True,LT
2021-08-11,LUX,EU,Luxembourg,49.815764,6.131514,74545,827,,,,,True,True,LU
2021-08-12,MDG,AF,Madagascar,-18.777192,46.854328,183481574,3842275,,,,,False,False,MG
2021-08-12,MWI,AF,Malawi,-13.24627,34.295385,183481574,3842275,,,,,False,False,MW
2021-08-12,MYS,AS,Malaysia,4.109319,109.455475,183481574,3842275,,,,,False,False,MY
2021-08-12,MDV,AS,Maldives,3.202833,73.165249,183481574,3842275,,,,,False,False,MV
2021-08-12,MLI,AF,Mali,17.579757,-3.998823,183481574,3842275,,,,,False,False,ML
2021-08-12,MLT,EU,Malta,35.946151,14.384612,35091,429,33525,1137,,,True,True,MT
2021-08-12,MHL,OC,Marshall Islands,10.10382,168.728363,183481574,3842275,,,,,False,False,
2021-08-12,MTQ,NA,Martinique,14.635541,-61.022814,183481574,3842275,,,,,False,False,
2021-08-12,MRT,AF,Mauritania,21.00681,-10.947098,183481574,3842275,,,,,False,False,MR
2021-08-12,MUS,AF,Mauritius,-15.422486,60.006449,183481574,3842275,,,,,False,False,MU
2021-08-12,MYT,AF,Mayotte,-12.824511,45.165455,183481574,3842275,,,,,False,False,
2021-08-12,MEX,NA,Mexico,23.624813,-102.57867,183481574,3842275,,,,,False,False,MX
2021-08-12,MDA,EU,Moldova,46.979527,28.377195,261524,6298,253503,1723,,,False,False,MD
2021-08-12,MCO,EU,Monaco,43.738348,7.424451,183481574,3842275,,,,,False,False,MC
2021-08-12,MNG,AS,Mongolia,46.860945,103.836986,183481574,3842275,,,,,False,False,MN
2021-08-12,MNE,EU,Montenegro,42.710152,19.410069,105002,1640,,,132,,False,True,ME
2021-08-12,MSR,NA,Montserrat,16.749415,-62.192741,183481574,3842275,,,,,False,False,MS
2021-08-12,MAR,AF,Morocco,31.792306,-7.080168,183481574,3842275,,,,,False,False,MA
2021-08-12,MOZ,AF,Mozambique,-18.670284,35.530157,183481574,3842275,,,,,False,False,MZ
2021-08-08,MMR,AS,"Myanmar, Union of",19.163916,96.68303,193613708,4107423,0,189506285,0,0,False,False,MM
2021-08-12,NAM,AF,Namibia,-22.965662,18.486165,183481574,3842275,,,,,False,False,NA
2021-08-12,NRU,OC,Nauru,-0.52832,166.922157,183481574,3842275,,,,,False,False,NR
2021-08-12,NPL,AS,Nepal,28.395056,84.127803,183481574,3842275,,,,,False,False,NP
2021-08-12,NLD,EU,Netherlands,52.133057,5.29525,1894667,24032,0,1870635,43544,0,True,True,NL
2021-08-12,NCL,OC,New Caledonia,-21.123889,165.846901,183481574,3842275,,,,,False,False,NC
2021-08-12,NZL,OC,New Zealand,-40.9006,174.886,183481574,3842275,,,,,False,False,NZ
2021-08-12,NIC,NA,Nicaragua,12.866726,-85.214298,183481574,3842275,,,,,False,False,NI
2021-08-12,NER,AF,Niger,17.611,8.080946,183481574,3842275,,,,,False,False,NE
2021-08-12,NGA,AF,Nigeria,9.084575,8.674252,183481574,3842275,,,,,False,False,NG
2021-08-12,NIU,OC,Niue,-19.051631,-169.86309,183481574,3842275,,,,,False,False,
2021-08-12,MKD,EU,North Macedonia,41.611,21.751417,183481574,3842275,,,,,False,True,MK
2021-08-08,MNP,OC,Northern Mariana Islands,17.331835,145.47577,193613708,4107423,0,189506285,0,0,False,False,MP
2021-08-12,NOR,EU,Norway,64.583013,17.86411,139897,807,0,139090,4751,904,False,True,NO
2021-08-12,OMN,AS,Oman,21.516861,55.859291,183481574,3842275,,,,,False,False,OM
2021-08-12,PAK,AS,Pakistan,30.441861,69.359766,183481574,3842275,,,,,False,False,PK
2021-08-12,PLW,OC,Palau,5.63663,132.920475,183481574,3842275,,,,,False,False,PW
2021-08-08,PSE,AS,Palestine,31.881464,34.894978,193613708,4107423,0,189506285,0,0,False,False,PS
2021-08-12,PAN,NA,Panama,8.41771,-80.112777,183481574,3842275,,,,,False,False,PA
2021-08-12,PNG,OC,Papua New Guinea,-6.48825,148.403152,183481574,3842275,,,,,False,False,PG
2021-08-12,PRY,SA,Paraguay,-23.451389,-58.453215,183481574,3842275,,,,,False,False,PY
2021-08-12,PER,SA,Peru,-9.181352,-75.002365,183481574,3842275,,,,,False,False,PE
2021-08-12,PHL,AS,Philippines,12.881958,121.76654,183481574,3842275,,,,,False,False,PH
2021-08-12,POL,EU,Poland,51.92275,19.136875,2884780,75291,2654874,154615,,,True,True,PL
2021-08-02,PRT,EU,Portugal,39.553444,-7.839319,1884554,34551,0,1850003,0,0,True,True,PT
2021-08-12,PRI,NA,Puerto Rico,18.223285,-66.592731,183481574,3842275,,,,,False,False,PR
2021-08-12,QAT,AS,Qatar,25.318833,51.19693,183481574,3842275,,,,,False,False,QA
2021-08-12,REU,AF,Réunion,-21.114533,55.532062,183481574,3842275,,,,,False,False,
2021-08-11,ROU,EU,Romania,45.947125,24.980514,1084849,34331,,,,,True,True,RO
2021-08-12,RUS,EU,Russian Fed.,61.523111,-74.9,6534791,170165,5828972,535654,0,0,False,False,RU
2021-08-12,RWA,AF,Rwanda,-1.94708,29.876376,183481574,3842275,,,,,False,False,RW
2021-08-12,SHN,AF,Saint Helena,-11.953679,-10.029991,183481574,3842275,,,,,False,False,
2021-08-12,KNA,NA,Saint Kitts and Nevis,17.257731,-62.706413,183481574,3842275,,,,,False,False,KN
2021-08-12,LCA,NA,Saint Lucia,13.904011,-60.974176,183481574,3842275,,,,,False,False,LC
2021-08-12,SPM,NA,Saint Pierre and Miquelon,46.966164,-56.336825,183481574,3842275,,,,,False,False,
2021-08-12,VCT,NA,Saint Vincent and the Grenadines,12.980909,-61.287392,183481574,3842275,,,,,False,False,VC
2021-08-08,BLM,NA,Saint-Barthélemy,17.903496,-62.831448,193613708,4107423,0,189506285,0,0,False,False,BL
2021-08-12,WSM,OC,Samoa,-13.736573,-172.10717,183481574,3842275,,,,,False,False,
2021-08-12,SMR,EU,San Marino,43.942973,12.460035,183481574,3842275,,,,,False,False,SM
2021-08-12,STP,AF,Sao Tome and Principe,0.863044,6.968272,183481574,3842275,,,,,False,False,ST
2021-08-12,SAU,AS,Saudi Arabia,23.886291,45.081139,183481574,3842275,,,,,False,False,SA
2021-08-12,SEN,AF,Senegal,14.499454,-14.445562,183481574,3842275,,,,,False,False,SN
2021-08-12,SRB,EU,Serbia,44.206802,20.911009,183481574,3842275,,,,,False,True,RS
2021-08-12,SYC,AF,Seychelles,-7.018792,51.242138,183481574,3842275,,,,,False,False,SC
2021-08-12,SLE,AF,Sierra Leone,8.464806,-11.795935,183481574,3842275,,,,,False,False,SL
2021-08-12,SGP,AS,Singapore,1.364917,103.822872,183481574,3842275,,,,,False,False,SG
2021-08-08,SXM,NA,Sint Maarten (Dutch part),18.04097,-63.078516,193613708,4107423,0,189506285,0,0,False,False,SX
2021-08-11,SVK,EU,Slovakia,48.665639,19.709097,393228,12544,,,54,2,True,True,SK
2021-08-09,SVN,EU,Slovenia,46.145528,14.974541,260368,4767,14605,240996,36,7,True,True,SI
2021-08-12,SLB,OC,Solomon Islands,-9.220083,161.244735,183481574,3842275,,,,,False,False,SB
2021-08-12,SOM,AF,Somalia,5.152149,46.199616,183481574,3842275,,,,,False,False,SO
2021-08-12,ZAF,AF,South Africa,-28.48322,24.676997,183481574,3842275,,,,,False,False,ZA
2021-08-08,KOR,AS,South Korea,35.901696,127.735889,193613708,4107423,0,189506285,0,0,False,False,KR
2021-08-12,SSD,AF,South Sudan,7.856272,30.040413,183481574,3842275,,,,,False,False,SS
2021-08-11,ESP,EU,Spain,39.896027,-2.487694,4660473,82320,,,9820,1947,True,True,ES
2021-08-12,LKA,AS,Sri Lanka,7.874097,80.767098,183481574,3842275,,,,,False,False,LK
2021-08-12,SDN,AF,Sudan,15.45847,30.217636,183481574,3842275,,,,,False,False,SD
2021-08-12,SUR,SA,Suriname,3.917846,-56.032028,183481574,3842275,,,,,False,False,SR
2021-08-11,SWE,EU,Sweden,62.199806,17.637493,1109112,14658,,,,7646,True,True,SE
2021-08-12,CHE,EU,Switzerland,46.815514,8.224472,725605,10977,108864,605764,327,75,False,False,CH
2021-08-12,SYR,AS,Syrian Arab Republic,34.814902,39.056126,183481574,3842275,,,,,False,False,SY
2021-08-08,TWN,AS,Taiwan,21.901806,121.471,193613708,4107423,0,189506285,0,0,False,False,TW
2021-08-12,TJK,AS,Tajikistan,38.858194,71.26218,183481574,3842275,,,,,False,False,TJ
2021-08-08,TZA,AF,Tanzania,-6.368216,34.885195,193613708,4107423,0,189506285,0,0,False,False,TZ
2021-08-12,THA,AS,Thailand,13.036597,101.492515,183481574,3842275,,,,,False,False,TH
2021-08-12,TGO,AF,Togo,8.621697,0.829685,183481574,3842275,,,,,False,False,TG
2021-08-12,TKL,OC,Tokelau,-8.967362,-171.855881,183481574,3842275,,,,,False,False,
2021-08-12,TON,OC,Tonga,-18.509023,-174.794922,183481574,3842275,,,,,False,False,
2021-08-12,TTO,NA,Trinidad and Tobago,10.687223,-61.220852,183481574,3842275,,,,,False,False,TT
2021-08-12,TUN,AF,Tunisia,33.892166,9.561556,183481574,3842275,,,,,False,False,TN
2021-08-03,TUR,AS,Turkey,38.961516,35.25175,5770833,51519,,,,,False,True,TR
2021-08-12,TKM,AS,Turkmenistan,38.968319,59.562873,183481574,3842275,,,,,False,False,TM
2021-08-12,TCA,NA,Turks and Caicos Islands,21.692252,-71.803756,183481574,3842275,,,,,False,False,TC
2021-08-12,TUV,OC,Tuvalu,-8.221571,177.964073,183481574,3842275,,,,,False,False,TV
2021-08-12,UGA,AF,Uganda,1.365188,32.304651,183481574,3842275,,,,,False,False,UG
2021-08-12,UKR,EU,Ukraine,48.379888,31.168139,2262601,53173,2194791,14637,,,False,False,UA
2021-08-12,ARE,AS,United Arab Emirates,24.358745,53.982494,183481574,3842275,,,,,False,False,AE
2021-08-11,GBR,EU,United Kingdom,54.633221,-3.432277,6101028,130607,0,5970421,,,False,True,UK
2021-08-12,USA,NA,United States of America,36.966428,-95.844032,183481574,3842275,,,,,False,False,US
2021-08-12,VIR,NA,United States Virgin Islands,18.036736,-64.801704,183481574,3842275,,,,,False,False,VI
2021-08-12,URY,SA,Uruguay,-32.53152,-55.758328,183481574,3842275,,,,,False,False,UY
2021-08-12,UZB,AS,Uzbekistan,41.379722,64.564459,183481574,3842275,,,,,False,False,UZ
2021-08-12,VUT,OC,Vanuatu,-16.661195,168.214882,183481574,3842275,,,,,False,False,VU
2021-08-08,VEN,SA,Venezuela,6.414107,-66.578926,193613708,4107423,0,189506285,0,0,False,False,VE
2021-08-08,VNM,AS,Vietnam,15.974222,105.806431,193613708,4107423,0,189506285,0,0,False,False,VN
2021-08-08,ESH,AF,Western Sahara,24.221916,-12.886729,193613708,4107423,0,189506285,0,0,False,False,EH
2021-08-08,WWW,WW,Whole Globe,0,0,193613708,4107423,0,189506285,0,0,False,False,
2021-08-12,YEM,AS,Yemen,15.555545,48.531539,183481574,3842275,,,,,False,False,YE
2021-08-12,ZMB,AF,Zambia,-13.151917,27.852537,183481574,3842275,,,,,False,False,ZM
2021-08-12,ZWE,AF,Zimbabwe,-19.013286,29.146667,183481574,3842275,,,,,False,False,ZW
