Date,iso3,Continent,CountryName,lat,lon,CumulativePositive,CumulativeDeceased,CumulativeRecovered,CurrentlyPositive,Hospitalized,IntensiveCare,EUcountry,EUCPMcountry,NUTS
2021-10-18,AFG,AS,Afghanistan,33.930445,67.678945,212459677,4288576,,,,,False,False,AF
2021-10-18,ALB,EU,Albania,41.156986,20.181222,177971,2820,168883,6268,141,22,False,False,AL
2021-10-18,DZA,AF,Algeria,28.026875,1.65284,212459677,4288576,,,,,False,False,DZ
2021-10-18,ASM,OC,American Samoa,-12.716089,-170.253983,212459677,4288576,,,,,False,False,
2021-10-18,AND,EU,Andorra,42.542268,1.596865,15367,130,,,0,,False,False,AD
2021-10-18,AGO,AF,Angola,-11.209451,17.880669,212459677,4288576,,,,,False,False,AO
2021-10-18,AIA,NA,Anguilla,18.225119,-63.07213,212459677,4288576,,,,,False,False,AI
2021-10-18,ATG,NA,Antigua and Barbuda,17.363183,-61.789423,212459677,4288576,,,,,False,False,AG
2021-10-18,ARG,SA,Argentina,-38.421295,-63.587403,212459677,4288576,,,,,False,False,AR
2021-10-18,ARM,AS,Armenia,40.066181,45.111108,212459677,4288576,,,,,False,False,AM
2021-10-18,ABW,NA,Aruba,12.517713,-69.965112,212459677,4288576,,,,,False,False,AW
2021-10-18,AUS,OC,Australia,-26.853388,133.275154,212459677,4288576,,,,,False,False,AU
2021-10-17,AUT,EU,Austria,47.697542,13.349319,774141,10945,733801,29395,653,220,True,True,AT
2021-10-18,AZE,AS,Azerbaijan,40.147396,47.572098,212459677,4288576,,,,,False,False,AZ
2021-10-18,BHS,NA,Bahamas,24.885993,-76.709892,212459677,4288576,,,,,False,False,BS
2021-10-18,BHR,AS,Bahrain,26.039722,50.559306,212459677,4288576,,,,,False,False,BH
2021-10-18,BGD,AS,Bangladesh,23.68764,90.351002,212459677,4288576,,,,,False,False,BD
2021-10-18,BRB,NA,Barbados,13.18355,-59.534649,212459677,4288576,,,,,False,False,BB
2021-10-18,BLR,EU,Belarus,53.711111,27.973847,573943,4417,,,,,False,False,BY
2021-10-15,BEL,EU,Belgium,50.499527,4.475402,1279869,25747,,,824,190,True,True,BE
2021-10-18,BLZ,NA,Belize,17.192929,-88.5009,212459677,4288576,,,,,False,False,BZ
2021-10-18,BEN,AF,Benin,9.322048,2.313138,212459677,4288576,,,,,False,False,BJ
2021-10-18,BMU,NA,Bermuda,32.320236,-64.774022,212459677,4288576,,,,,False,False,BM
2021-10-18,BTN,AS,Bhutan,27.515709,90.442455,212459677,4288576,,,,,False,False,BT
2021-10-10,BOL,SA,Bolivia,-16.28835,-63.549429,218497558,4505432,0,213992126,0,0,False,False,BO
2021-10-10,BES,NA,"Bonaire, Saint Eustatius and Saba",12.160842,-68.304383,218497558,4505432,0,213992126,0,0,False,False,BQ
2021-10-18,BIH,EU,Bosnia and Herzegovina,43.892652,17.670584,245082,11201,,,,,False,False,BA
2021-10-18,BWA,AF,Botswana,-22.344029,24.680158,212459677,4288576,,,,,False,False,BW
2021-10-18,BRA,SA,Brazil,-14.242915,-53.189267,212459677,4288576,,,,,False,False,BR
2021-10-18,VGB,NA,British Virgin Islands,18.573601,-64.492065,212459677,4288576,,,,,False,False,VG
2021-10-10,BRN,AS,Brunei,4.525125,114.715443,218497558,4505432,0,213992126,0,0,False,False,BN
2021-09-23,BGR,EU,Bulgaria,42.729862,25.491667,487588,20251,426266,41071,,,True,True,BG
2021-10-18,BFA,AF,Burkina Faso,12.24185,-1.55676,212459677,4288576,,,,,False,False,BF
2021-10-18,BDI,AF,Burundi,-3.387918,29.920395,212459677,4288576,,,,,False,False,BI
2021-10-18,CPV,AF,Cabo Verde,16.0026,-24.014095,212459677,4288576,,,,,False,False,CV
2021-10-18,KHM,AS,Cambodia,12.54775,104.98386,212459677,4288576,,,,,False,False,KH
2021-10-18,CMR,AF,Cameroon,7.365302,12.343439,212459677,4288576,,,,,False,False,CM
2021-10-18,CAN,NA,Canada,62.393303,-96.818145,212459677,4288576,,,,,False,False,CA
2021-10-18,CYM,NA,Cayman Islands,19.512365,-80.580025,212459677,4288576,,,,,False,False,KY
2021-10-18,CAF,AF,Central African Republic,6.614041,20.941759,212459677,4288576,,,,,False,False,CF
2021-10-18,TCD,AF,Chad,15.445718,18.738068,212459677,4288576,,,,,False,False,TD
2021-10-18,CHL,SA,Chile,-36.711951,-73.601704,212459677,4288576,,,,,False,False,CL
2021-10-18,CHN,AS,China,34.668138,104.165802,212459677,4288576,,,,,False,False,CN
2021-10-18,COL,SA,Colombia,4.577317,-74.298973,212459677,4288576,,,,,False,False,CO
2021-10-18,COM,AF,Comoros,-11.875119,43.877007,212459677,4288576,,,,,False,False,KM
2021-10-10,COD,AF,"Congo, Democratic Republic of the",-4.034788,21.755028,218497558,4505432,0,213992126,0,0,False,False,CD
2021-10-10,COG,AF,"Congo, Rep. Of",-0.662071,14.927424,218497558,4505432,0,213992126,0,0,False,False,CG
2021-10-18,COK,OC,Cook Islands,-15.983639,-159.202896,212459677,4288576,,,,,False,False,
2021-10-18,CRI,NA,Costa Rica,9.624897,-84.253308,212459677,4288576,,,,,False,False,CR
2021-10-10,CIV,AF,Cote d'Ivoire,7.546855,-5.547099,218497558,4505432,0,213992126,0,0,False,False,CI
2021-10-14,HRV,EU,Croatia,44.48732,16.460306,422908,8846,355542,58520,,,True,True,HR
2021-10-18,CUB,NA,Cuba,21.527062,-79.544601,212459677,4288576,,,,,False,False,CU
2021-10-18,CUW,NA,Curaçao,12.209208,-68.945576,212459677,4288576,,,,,False,False,CW
2021-10-17,CYP,EU,Cyprus,35.167406,33.435499,122528,649,118459,3420,2502,,True,True,CY
2021-10-17,CZE,EU,Czech Republic,49.800901,15.478153,1709716,30554,1662948,16214,,,True,True,CZ
2021-10-18,DNK,EU,Denmark,56.155403,11.617223,369403,2688,357705,9010,121,0,True,True,DK
2021-10-18,DJI,AF,Djibouti,11.808375,42.595222,212459677,4288576,,,,,False,False,DJ
2021-10-18,DMA,NA,Dominica,15.416749,-61.36413,212459677,4288576,,,,,False,False,DM
2021-10-18,DOM,NA,Dominican Republic,18.736509,-70.161744,212459677,4288576,,,,,False,False,DO
2021-10-10,TLS,OC,East Timor,-8.79973,125.677345,218497558,4505432,0,213992126,0,0,False,False,TL
2021-10-18,ECU,SA,Ecuador,-1.779901,-78.131592,212459677,4288576,,,,,False,False,EC
2021-10-18,EGY,AF,Egypt,26.696362,30.246486,212459677,4288576,,,,,False,False,EG
2021-10-18,SLV,NA,El Salvador,13.796873,-88.910412,212459677,4288576,,,,,False,False,SV
2021-10-18,GNQ,AF,Equatorial Guinea,1.633925,10.341295,212459677,4288576,,,,,False,False,GQ
2021-10-18,ERI,AF,Eritrea,15.18132,39.786709,212459677,4288576,,,,,False,False,ER
2021-10-18,EST,EU,Estonia,58.596209,25.023778,173335,,,,,,True,True,EE
2021-10-18,ETH,AF,Ethiopia,9.148086,40.493059,212459677,4288576,,,,,False,False,ET
2021-10-10,FRO,EU,Faeroe Islands,61.897846,-6.928791,218497558,4505432,0,213992126,0,0,False,False,
2021-10-18,FLK,SA,Falkland Islands (Malvinas),-51.800581,-59.528839,212459677,4288576,,,,,False,False,FK
2021-10-18,FJI,OC,Fiji,-16.578041,178.416339,212459677,4288576,,,,,False,False,FJ
2021-10-18,FIN,EU,Finland,64.952416,26.068944,151209,846,0,150363,,,True,True,FI
2021-10-18,FRA,EU,France,46.232193,2.209667,212459677,4288576,,,,,True,True,FR
2021-10-18,GUF,SA,French Guiana,3.951795,-53.07823,212459677,4288576,,,,,False,False,
2021-10-18,PYF,OC,French Polynesia,-17.778572,-143.903496,212459677,4288576,,,,,False,False,PF
2021-10-18,GAB,AF,Gabon,-0.828097,11.598909,212459677,4288576,,,,,False,False,GA
2021-10-18,GMB,AF,Gambia,13.445411,-15.311436,212459677,4288576,,,,,False,False,GM
2021-10-18,GEO,AS,Georgia,42.319847,43.368055,212459677,4288576,,,,,False,False,GE
2021-10-18,DEU,EU,Germany,51.165706,10.452764,4377847,94628,4155000,128219,,,True,True,DE
2021-10-18,GHA,AF,Ghana,7.955012,-1.03182,212459677,4288576,,,,,False,False,GH
2021-10-18,GIB,EU,Gibraltar,36.132235,-5.352273,212459677,4288576,,,,,False,False,GI
2021-10-18,GRC,EU,Greece,38.275283,23.810343,212459677,4288576,,,,,True,True,EL
2021-10-18,GRL,NA,Greenland,71.702379,-42.177174,212459677,4288576,,,,,False,False,
2021-10-18,GRD,NA,Grenada,12.152588,-61.689557,212459677,4288576,,,,,False,False,GD
2021-10-18,GLP,NA,Guadeloupe,16.192207,-61.272382,212459677,4288576,,,,,False,False,
2021-10-18,GUM,OC,Guam,13.446472,144.786613,212459677,4288576,,,,,False,False,GU
2021-10-18,GTM,NA,Guatemala,15.776261,-90.229744,212459677,4288576,,,,,False,False,GT
2021-10-18,GGY,EU,Guernsey,49.575693,-2.42318,212459677,4288576,,,,,False,False,GG
2021-10-18,GIN,AF,Guinea,9.934887,-11.283845,212459677,4288576,,,,,False,False,GN
2021-10-10,GNB,AF,Guinea Bissau,11.802527,-15.177029,218497558,4505432,0,213992126,0,0,False,False,GW
2021-10-18,GUY,SA,Guyana,4.866324,-58.932507,212459677,4288576,,,,,False,False,GY
2021-10-18,HTI,NA,Haiti,19.054426,-73.045971,212459677,4288576,,,,,False,False,HT
2021-10-18,VAT,EU,Holy See,41.903859,12.452041,212459677,4288576,,,,,False,False,
2021-10-18,HND,NA,Honduras,14.746333,-86.253097,212459677,4288576,,,,,False,False,HN
2021-10-18,HUN,EU,Hungary,47.164638,19.508944,836839,30402,791998,14439,,,True,True,HU
2021-10-18,ISL,EU,Iceland,64.963942,-19.021169,212459677,4288576,,,,,False,True,IS
2021-10-18,IND,AS,India,21.125681,82.794998,212459677,4288576,,,,,False,False,IN
2021-10-18,IDN,AS,Indonesia,-2.518722,118.015568,212459677,4288576,,,,,False,False,ID
2021-10-10,IRN,AS,Iran,32.420653,53.682375,218497558,4505432,0,213992126,0,0,False,False,IR
2021-10-18,IRQ,AS,Iraq,33.223737,43.685901,212459677,4288576,,,,,False,False,IQ
2021-10-18,IRL,EU,Ireland,53.41975,-8.240472,416690,5306,,,17668,1920,True,True,IE
2021-10-18,IMN,EU,Isle of Man,54.23782,-4.555111,212459677,4288576,,,,,False,False,IM
2021-10-18,ISR,AS,Israel,31.418388,35.073541,212459677,4288576,,,,,False,False,IL
2021-10-18,ITA,EU,Italy,41.873987,12.564167,4719493,131585,4511545,76363,2786,358,True,True,IT
2021-10-18,JAM,NA,Jamaica,18.115265,-77.27348,212459677,4288576,,,,,False,False,JM
2021-10-18,JPN,AS,Japan,34.886306,134.379711,212459677,4288576,,,,,False,False,JP
2021-10-18,JEY,EU,Jersey,49.217445,-2.141056,212459677,4288576,,,,,False,False,JE
2021-10-18,JOR,AS,Jordan,31.276778,37.130583,212459677,4288576,,,,,False,False,JO
2021-10-18,KAZ,AS,Kazakhstan,48.193764,66.902264,212459677,4288576,,,,,False,False,KZ
2021-10-18,KEN,AF,Kenya,0.170945,37.903969,212459677,4288576,,,,,False,False,KE
2021-10-18,KIR,OC,Kiribati,-3.358734,9.670395,212459677,4288576,,,,,False,False,
2021-10-10,XKX,EU,Kosovo,41.85637,21.803351,218497558,4505432,0,213992126,0,0,False,False,XK
2021-10-18,KWT,AS,Kuwait,29.310278,47.493515,212459677,4288576,,,,,False,False,KW
2021-10-18,KGZ,AS,Kyrgyzstan,41.205528,74.779888,212459677,4288576,,,,,False,False,KG
2021-10-10,LAO,AS,Laos,18.205208,103.895043,218497558,4505432,0,213992126,0,0,False,False,LA
2021-10-18,LVA,EU,Latvia,56.875584,24.607722,186869,2897,,,,,True,True,LV
2021-10-18,LBN,AS,Lebanon,33.872639,35.876736,212459677,4288576,,,,,False,False,LB
2021-10-18,LSO,AF,Lesotho,-29.620511,28.247414,212459677,4288576,,,,,False,False,LS
2021-10-18,LBR,AF,Liberia,6.452424,-9.428598,212459677,4288576,,,,,False,False,LR
2021-10-18,LBY,AF,Libya,26.338522,17.268816,212459677,4288576,,,,,False,False,LY
2021-10-18,LIE,EU,Liechtenstein,47.164696,9.555,212459677,4288576,,,,,False,False,LI
2021-10-17,LTU,EU,Lithuania,55.174112,23.906736,370119,5456,329615,35048,,,True,True,LT
2021-10-17,LUX,EU,Luxembourg,49.815764,6.131514,79982,839,,,,,True,True,LU
2021-10-18,MDG,AF,Madagascar,-18.777192,46.854328,212459677,4288576,,,,,False,False,MG
2021-10-18,MWI,AF,Malawi,-13.24627,34.295385,212459677,4288576,,,,,False,False,MW
2021-10-18,MYS,AS,Malaysia,4.109319,109.455475,212459677,4288576,,,,,False,False,MY
2021-10-18,MDV,AS,Maldives,3.202833,73.165249,212459677,4288576,,,,,False,False,MV
2021-10-18,MLI,AF,Mali,17.579757,-3.998823,212459677,4288576,,,,,False,False,ML
2021-10-18,MLT,EU,Malta,35.946151,14.384612,37466,459,36340,667,,,True,True,MT
2021-10-18,MHL,OC,Marshall Islands,10.10382,168.728363,212459677,4288576,,,,,False,False,
2021-10-18,MTQ,NA,Martinique,14.635541,-61.022814,212459677,4288576,,,,,False,False,
2021-10-18,MRT,AF,Mauritania,21.00681,-10.947098,212459677,4288576,,,,,False,False,MR
2021-10-18,MUS,AF,Mauritius,-15.422486,60.006449,212459677,4288576,,,,,False,False,MU
2021-10-18,MYT,AF,Mayotte,-12.824511,45.165455,212459677,4288576,,,,,False,False,
2021-10-18,MEX,NA,Mexico,23.624813,-102.57867,212459677,4288576,,,,,False,False,MX
2021-10-16,MDA,EU,Moldova,46.979527,28.377195,315414,7206,295604,12604,,,False,False,MD
2021-10-18,MCO,EU,Monaco,43.738348,7.424451,212459677,4288576,,,,,False,False,MC
2021-10-18,MNG,AS,Mongolia,46.860945,103.836986,212459677,4288576,,,,,False,False,MN
2021-10-18,MNE,EU,Montenegro,42.710152,19.410069,138047,2036,,,0,,False,True,ME
2021-10-18,MSR,NA,Montserrat,16.749415,-62.192741,212459677,4288576,,,,,False,False,MS
2021-10-18,MAR,AF,Morocco,31.792306,-7.080168,212459677,4288576,,,,,False,False,MA
2021-10-18,MOZ,AF,Mozambique,-18.670284,35.530157,212459677,4288576,,,,,False,False,MZ
2021-10-10,MMR,AS,"Myanmar, Union of",19.163916,96.68303,218497558,4505432,0,213992126,0,0,False,False,MM
2021-10-18,NAM,AF,Namibia,-22.965662,18.486165,212459677,4288576,,,,,False,False,NA
2021-10-18,NRU,OC,Nauru,-0.52832,166.922157,212459677,4288576,,,,,False,False,NR
2021-10-18,NPL,AS,Nepal,28.395056,84.127803,212459677,4288576,,,,,False,False,NP
2021-10-18,NLD,EU,Netherlands,52.133057,5.29525,2051065,24388,0,2026677,45034,0,True,True,NL
2021-10-18,NCL,OC,New Caledonia,-21.123889,165.846901,212459677,4288576,,,,,False,False,NC
2021-10-18,NZL,OC,New Zealand,-40.9006,174.886,212459677,4288576,,,,,False,False,NZ
2021-10-18,NIC,NA,Nicaragua,12.866726,-85.214298,212459677,4288576,,,,,False,False,NI
2021-10-18,NER,AF,Niger,17.611,8.080946,212459677,4288576,,,,,False,False,NE
2021-10-18,NGA,AF,Nigeria,9.084575,8.674252,212459677,4288576,,,,,False,False,NG
2021-10-18,NIU,OC,Niue,-19.051631,-169.86309,212459677,4288576,,,,,False,False,
2021-10-18,MKD,EU,North Macedonia,41.611,21.751417,212459677,4288576,,,,,False,True,MK
2021-10-10,MNP,OC,Northern Mariana Islands,17.331835,145.47577,218497558,4505432,0,213992126,0,0,False,False,MP
2021-10-18,NOR,EU,Norway,64.583013,17.86411,192625,884,0,191741,5363,1018,False,True,NO
2021-10-18,OMN,AS,Oman,21.516861,55.859291,212459677,4288576,,,,,False,False,OM
2021-10-18,PAK,AS,Pakistan,30.441861,69.359766,212459677,4288576,,,,,False,False,PK
2021-10-18,PLW,OC,Palau,5.63663,132.920475,212459677,4288576,,,,,False,False,PW
2021-10-10,PSE,AS,Palestine,31.881464,34.894978,218497558,4505432,0,213992126,0,0,False,False,PS
2021-10-18,PAN,NA,Panama,8.41771,-80.112777,212459677,4288576,,,,,False,False,PA
2021-10-18,PNG,OC,Papua New Guinea,-6.48825,148.403152,212459677,4288576,,,,,False,False,PG
2021-10-18,PRY,SA,Paraguay,-23.451389,-58.453215,212459677,4288576,,,,,False,False,PY
2021-10-18,PER,SA,Peru,-9.181352,-75.002365,212459677,4288576,,,,,False,False,PE
2021-10-18,PHL,AS,Philippines,12.881958,121.76654,212459677,4288576,,,,,False,False,PH
2021-10-18,POL,EU,Poland,51.92275,19.136875,2941126,76115,2677537,187474,,,True,True,PL
2021-10-18,PRT,EU,Portugal,39.553444,-7.839319,212459677,4288576,,,,,True,True,PT
2021-10-18,PRI,NA,Puerto Rico,18.223285,-66.592731,212459677,4288576,,,,,False,False,PR
2021-10-18,QAT,AS,Qatar,25.318833,51.19693,212459677,4288576,,,,,False,False,QA
2021-10-18,REU,AF,Réunion,-21.114533,55.532062,212459677,4288576,,,,,False,False,
2021-10-18,ROU,EU,Romania,45.947125,24.980514,1447697,42042,,,,,True,True,RO
2021-10-15,RUS,EU,Russian Fed.,61.523111,-74.9,7925176,223429,6960024,741723,0,0,False,False,RU
2021-10-18,RWA,AF,Rwanda,-1.94708,29.876376,212459677,4288576,,,,,False,False,RW
2021-10-18,SHN,AF,Saint Helena,-11.953679,-10.029991,212459677,4288576,,,,,False,False,
2021-10-18,KNA,NA,Saint Kitts and Nevis,17.257731,-62.706413,212459677,4288576,,,,,False,False,KN
2021-10-18,LCA,NA,Saint Lucia,13.904011,-60.974176,212459677,4288576,,,,,False,False,LC
2021-10-18,SPM,NA,Saint Pierre and Miquelon,46.966164,-56.336825,212459677,4288576,,,,,False,False,
2021-10-18,VCT,NA,Saint Vincent and the Grenadines,12.980909,-61.287392,212459677,4288576,,,,,False,False,VC
2021-10-10,BLM,NA,Saint-Barthélemy,17.903496,-62.831448,218497558,4505432,0,213992126,0,0,False,False,BL
2021-10-18,WSM,OC,Samoa,-13.736573,-172.10717,212459677,4288576,,,,,False,False,
2021-10-18,SMR,EU,San Marino,43.942973,12.460035,212459677,4288576,,,,,False,False,SM
2021-10-18,STP,AF,Sao Tome and Principe,0.863044,6.968272,212459677,4288576,,,,,False,False,ST
2021-10-18,SAU,AS,Saudi Arabia,23.886291,45.081139,212459677,4288576,,,,,False,False,SA
2021-10-18,SEN,AF,Senegal,14.499454,-14.445562,212459677,4288576,,,,,False,False,SN
2021-10-18,SRB,EU,Serbia,44.206802,20.911009,212459677,4288576,,,,,False,True,RS
2021-10-18,SYC,AF,Seychelles,-7.018792,51.242138,212459677,4288576,,,,,False,False,SC
2021-10-18,SLE,AF,Sierra Leone,8.464806,-11.795935,212459677,4288576,,,,,False,False,SL
2021-10-18,SGP,AS,Singapore,1.364917,103.822872,212459677,4288576,,,,,False,False,SG
2021-10-10,SXM,NA,Sint Maarten (Dutch part),18.04097,-63.078516,218497558,4505432,0,213992126,0,0,False,False,SX
2021-10-18,SVK,EU,Slovakia,48.665639,19.709097,437385,12846,,,889,101,True,True,SK
2021-09-26,SVN,EU,Slovenia,46.145528,14.974541,289951,4862,15315,269774,426,108,True,True,SI
2021-10-18,SLB,OC,Solomon Islands,-9.220083,161.244735,212459677,4288576,,,,,False,False,SB
2021-10-18,SOM,AF,Somalia,5.152149,46.199616,212459677,4288576,,,,,False,False,SO
2021-10-18,ZAF,AF,South Africa,-28.48322,24.676997,212459677,4288576,,,,,False,False,ZA
2021-10-10,KOR,AS,South Korea,35.901696,127.735889,218497558,4505432,0,213992126,0,0,False,False,KR
2021-10-18,SSD,AF,South Sudan,7.856272,30.040413,212459677,4288576,,,,,False,False,SS
2021-10-15,ESP,EU,Spain,39.896027,-2.487694,4984386,86974,,,1835,443,True,True,ES
2021-10-18,LKA,AS,Sri Lanka,7.874097,80.767098,212459677,4288576,,,,,False,False,LK
2021-10-18,SDN,AF,Sudan,15.45847,30.217636,212459677,4288576,,,,,False,False,SD
2021-10-18,SUR,SA,Suriname,3.917846,-56.032028,212459677,4288576,,,,,False,False,SR
2021-10-14,SWE,EU,Sweden,62.199806,17.637493,1161933,14956,,,,7877,True,True,SE
2021-10-18,CHE,EU,Switzerland,46.815514,8.224472,846592,11318,127315,707959,512,151,False,False,CH
2021-10-18,SYR,AS,Syrian Arab Republic,34.814902,39.056126,212459677,4288576,,,,,False,False,SY
2021-10-10,TWN,AS,Taiwan,21.901806,121.471,218497558,4505432,0,213992126,0,0,False,False,TW
2021-10-18,TJK,AS,Tajikistan,38.858194,71.26218,212459677,4288576,,,,,False,False,TJ
2021-10-10,TZA,AF,Tanzania,-6.368216,34.885195,218497558,4505432,0,213992126,0,0,False,False,TZ
2021-10-18,THA,AS,Thailand,13.036597,101.492515,212459677,4288576,,,,,False,False,TH
2021-10-18,TGO,AF,Togo,8.621697,0.829685,212459677,4288576,,,,,False,False,TG
2021-10-18,TKL,OC,Tokelau,-8.967362,-171.855881,212459677,4288576,,,,,False,False,
2021-10-18,TON,OC,Tonga,-18.509023,-174.794922,212459677,4288576,,,,,False,False,
2021-10-18,TTO,NA,Trinidad and Tobago,10.687223,-61.220852,212459677,4288576,,,,,False,False,TT
2021-10-18,TUN,AF,Tunisia,33.892166,9.561556,212459677,4288576,,,,,False,False,TN
2021-10-18,TUR,AS,Turkey,38.961516,35.25175,212459677,4288576,,,,,False,True,TR
2021-10-18,TKM,AS,Turkmenistan,38.968319,59.562873,212459677,4288576,,,,,False,False,TM
2021-10-18,TCA,NA,Turks and Caicos Islands,21.692252,-71.803756,212459677,4288576,,,,,False,False,TC
2021-10-18,TUV,OC,Tuvalu,-8.221571,177.964073,212459677,4288576,,,,,False,False,TV
2021-10-18,UGA,AF,Uganda,1.365188,32.304651,212459677,4288576,,,,,False,False,UG
2021-10-18,UKR,EU,Ukraine,48.379888,31.168139,2644694,60810,2329418,254466,,,False,False,UA
2021-10-18,ARE,AS,United Arab Emirates,24.358745,53.982494,212459677,4288576,,,,,False,False,AE
2021-10-15,GBR,EU,United Kingdom,54.633221,-3.432277,8361661,138379,0,8223282,,,False,True,UK
2021-10-18,USA,NA,United States of America,36.966428,-95.844032,212459677,4288576,,,,,False,False,US
2021-10-18,VIR,NA,United States Virgin Islands,18.036736,-64.801704,212459677,4288576,,,,,False,False,VI
2021-10-18,URY,SA,Uruguay,-32.53152,-55.758328,212459677,4288576,,,,,False,False,UY
2021-10-18,UZB,AS,Uzbekistan,41.379722,64.564459,212459677,4288576,,,,,False,False,UZ
2021-10-18,VUT,OC,Vanuatu,-16.661195,168.214882,212459677,4288576,,,,,False,False,VU
2021-10-10,VEN,SA,Venezuela,6.414107,-66.578926,218497558,4505432,0,213992126,0,0,False,False,VE
2021-10-10,VNM,AS,Vietnam,15.974222,105.806431,218497558,4505432,0,213992126,0,0,False,False,VN
2021-10-10,ESH,AF,Western Sahara,24.221916,-12.886729,218497558,4505432,0,213992126,0,0,False,False,EH
2021-10-10,WWW,WW,Whole Globe,0,0,218497558,4505432,0,213992126,0,0,False,False,
2021-10-18,YEM,AS,Yemen,15.555545,48.531539,212459677,4288576,,,,,False,False,YE
2021-10-18,ZMB,AF,Zambia,-13.151917,27.852537,212459677,4288576,,,,,False,False,ZM
2021-10-18,ZWE,AF,Zimbabwe,-19.013286,29.146667,212459677,4288576,,,,,False,False,ZW
