Date,iso3,Continent,CountryName,lat,lon,CumulativePositive,CumulativeDeceased,CumulativeRecovered,CurrentlyPositive,Hospitalized,IntensiveCare,EUcountry,EUCPMcountry,NUTS
2021-06-12,AFG,AS,Afghanistan,33.930445,67.678945,158704877,3378774,,,,,False,False,AF
2021-06-12,ALB,EU,Albania,41.156986,20.181222,132449,2453,129826,170,15,6,False,False,AL
2021-06-12,DZA,AF,Algeria,28.026875,1.65284,158704877,3378774,,,,,False,False,DZ
2021-06-12,ASM,OC,American Samoa,-12.716089,-170.253983,158704877,3378774,,,,,False,False,
2021-06-11,AND,EU,Andorra,42.542268,1.596865,13813,127,,,0,,False,False,AD
2021-06-12,AGO,AF,Angola,-11.209451,17.880669,158704877,3378774,,,,,False,False,AO
2021-06-12,AIA,NA,Anguilla,18.225119,-63.07213,158704877,3378774,,,,,False,False,AI
2021-06-12,ATG,NA,Antigua and Barbuda,17.363183,-61.789423,158704877,3378774,,,,,False,False,AG
2021-06-12,ARG,SA,Argentina,-38.421295,-63.587403,158704877,3378774,,,,,False,False,AR
2021-06-12,ARM,AS,Armenia,40.066181,45.111108,158704877,3378774,,,,,False,False,AM
2021-06-12,ABW,NA,Aruba,12.517713,-69.965112,158704877,3378774,,,,,False,False,AW
2021-06-12,AUS,OC,Australia,-26.853388,133.275154,158704877,3378774,,,,,False,False,AU
2021-06-11,AUT,EU,Austria,47.697542,13.349319,644361,10396,624007,9958,229,97,True,True,AT
2021-06-12,AZE,AS,Azerbaijan,40.147396,47.572098,158704877,3378774,,,,,False,False,AZ
2021-06-12,BHS,NA,Bahamas,24.885993,-76.709892,158704877,3378774,,,,,False,False,BS
2021-06-12,BHR,AS,Bahrain,26.039722,50.559306,158704877,3378774,,,,,False,False,BH
2021-06-12,BGD,AS,Bangladesh,23.68764,90.351002,158704877,3378774,,,,,False,False,BD
2021-06-12,BRB,NA,Barbados,13.18355,-59.534649,158704877,3378774,,,,,False,False,BB
2021-06-11,BLR,EU,Belarus,53.711111,27.973847,403845,2958,,,,,False,False,BY
2021-06-10,BEL,EU,Belgium,50.499527,4.475402,1074204,25068,,,820,302,True,True,BE
2021-06-12,BLZ,NA,Belize,17.192929,-88.5009,158704877,3378774,,,,,False,False,BZ
2021-06-12,BEN,AF,Benin,9.322048,2.313138,158704877,3378774,,,,,False,False,BJ
2021-06-12,BMU,NA,Bermuda,32.320236,-64.774022,158704877,3378774,,,,,False,False,BM
2021-06-12,BTN,AS,Bhutan,27.515709,90.442455,158704877,3378774,,,,,False,False,BT
2021-06-06,BOL,SA,Bolivia,-16.28835,-63.549429,168064776,3616118,0,164448658,0,0,False,False,BO
2021-06-06,BES,NA,"Bonaire, Saint Eustatius and Saba",12.160842,-68.304383,168064776,3616118,0,164448658,0,0,False,False,BQ
2021-06-11,BIH,EU,Bosnia and Herzegovina,43.892652,17.670584,204597,9479,177122,17996,,,False,False,BA
2021-06-12,BWA,AF,Botswana,-22.344029,24.680158,158704877,3378774,,,,,False,False,BW
2021-06-12,BRA,SA,Brazil,-14.242915,-53.189267,158704877,3378774,,,,,False,False,BR
2021-06-12,VGB,NA,British Virgin Islands,18.573601,-64.492065,158704877,3378774,,,,,False,False,VG
2021-06-06,BRN,AS,Brunei,4.525125,114.715443,168064776,3616118,0,164448658,0,0,False,False,BN
2021-06-11,BGR,EU,Bulgaria,42.729862,25.491667,420090,17887,388585,13618,,,True,True,BG
2021-06-12,BFA,AF,Burkina Faso,12.24185,-1.55676,158704877,3378774,,,,,False,False,BF
2021-06-12,BDI,AF,Burundi,-3.387918,29.920395,158704877,3378774,,,,,False,False,BI
2021-06-12,CPV,AF,Cabo Verde,16.0026,-24.014095,158704877,3378774,,,,,False,False,CV
2021-06-12,KHM,AS,Cambodia,12.54775,104.98386,158704877,3378774,,,,,False,False,KH
2021-06-12,CMR,AF,Cameroon,7.365302,12.343439,158704877,3378774,,,,,False,False,CM
2021-06-12,CAN,NA,Canada,62.393303,-96.818145,158704877,3378774,,,,,False,False,CA
2021-06-12,CYM,NA,Cayman Islands,19.512365,-80.580025,158704877,3378774,,,,,False,False,KY
2021-06-12,CAF,AF,Central African Republic,6.614041,20.941759,158704877,3378774,,,,,False,False,CF
2021-06-12,TCD,AF,Chad,15.445718,18.738068,158704877,3378774,,,,,False,False,TD
2021-06-12,CHL,SA,Chile,-36.711951,-73.601704,158704877,3378774,,,,,False,False,CL
2021-06-12,CHN,AS,China,34.668138,104.165802,158704877,3378774,,,,,False,False,CN
2021-06-12,COL,SA,Colombia,4.577317,-74.298973,158704877,3378774,,,,,False,False,CO
2021-06-12,COM,AF,Comoros,-11.875119,43.877007,158704877,3378774,,,,,False,False,KM
2021-06-06,COD,AF,"Congo, Democratic Republic of the",-4.034788,21.755028,168064776,3616118,0,164448658,0,0,False,False,CD
2021-06-06,COG,AF,"Congo, Rep. Of",-0.662071,14.927424,168064776,3616118,0,164448658,0,0,False,False,CG
2021-06-12,COK,OC,Cook Islands,-15.983639,-159.202896,158704877,3378774,,,,,False,False,
2021-06-12,CRI,NA,Costa Rica,9.624897,-84.253308,158704877,3378774,,,,,False,False,CR
2021-06-06,CIV,AF,Cote d'Ivoire,7.546855,-5.547099,168064776,3616118,0,164448658,0,0,False,False,CI
2021-06-10,HRV,EU,Croatia,44.48732,16.460306,358245,8110,348845,1290,,,True,True,HR
2021-06-12,CUB,NA,Cuba,21.527062,-79.544601,158704877,3378774,,,,,False,False,CU
2021-06-12,CUW,NA,Curaçao,12.209208,-68.945576,158704877,3378774,,,,,False,False,CW
2021-06-10,CYP,EU,Cyprus,35.167406,33.435499,73115,442,68782,3891,1692,,True,True,CY
2021-06-11,CZE,EU,Czech Republic,49.800901,15.478153,1665022,30224,1629375,5423,,,True,True,CZ
2021-06-11,DNK,EU,Denmark,56.155403,11.617223,289122,2523,276517,10082,111,0,True,True,DK
2021-06-12,DJI,AF,Djibouti,11.808375,42.595222,158704877,3378774,,,,,False,False,DJ
2021-06-12,DMA,NA,Dominica,15.416749,-61.36413,158704877,3378774,,,,,False,False,DM
2021-06-12,DOM,NA,Dominican Republic,18.736509,-70.161744,158704877,3378774,,,,,False,False,DO
2021-06-06,TLS,OC,East Timor,-8.79973,125.677345,168064776,3616118,0,164448658,0,0,False,False,TL
2021-06-12,ECU,SA,Ecuador,-1.779901,-78.131592,158704877,3378774,,,,,False,False,EC
2021-06-12,EGY,AF,Egypt,26.696362,30.246486,158704877,3378774,,,,,False,False,EG
2021-06-12,SLV,NA,El Salvador,13.796873,-88.910412,158704877,3378774,,,,,False,False,SV
2021-06-12,GNQ,AF,Equatorial Guinea,1.633925,10.341295,158704877,3378774,,,,,False,False,GQ
2021-06-12,ERI,AF,Eritrea,15.18132,39.786709,158704877,3378774,,,,,False,False,ER
2021-06-12,EST,EU,Estonia,58.596209,25.023778,130473,1266,,,,,True,True,EE
2021-06-12,ETH,AF,Ethiopia,9.148086,40.493059,158704877,3378774,,,,,False,False,ET
2021-06-06,FRO,EU,Faeroe Islands,61.897846,-6.928791,168064776,3616118,0,164448658,0,0,False,False,
2021-06-12,FLK,SA,Falkland Islands (Malvinas),-51.800581,-59.528839,158704877,3378774,,,,,False,False,FK
2021-06-12,FJI,OC,Fiji,-16.578041,178.416339,158704877,3378774,,,,,False,False,FJ
2021-06-12,FIN,EU,Finland,64.952416,26.068944,93662,846,0,92816,,,True,True,FI
2021-05-23,FRA,EU,France,46.232193,2.209667,5980325,82234,364695,5533396,19720,3515,True,True,FR
2021-06-12,GUF,SA,French Guiana,3.951795,-53.07823,158704877,3378774,,,,,False,False,
2021-06-12,PYF,OC,French Polynesia,-17.778572,-143.903496,158704877,3378774,,,,,False,False,PF
2021-06-12,GAB,AF,Gabon,-0.828097,11.598909,158704877,3378774,,,,,False,False,GA
2021-06-12,GMB,AF,Gambia,13.445411,-15.311436,158704877,3378774,,,,,False,False,GM
2021-06-12,GEO,AS,Georgia,42.319847,43.368055,158704877,3378774,,,,,False,False,GE
2021-06-12,DEU,EU,Germany,51.165706,10.452764,3713482,89816,3573600,50066,,,True,True,DE
2021-06-12,GHA,AF,Ghana,7.955012,-1.03182,158704877,3378774,,,,,False,False,GH
2021-06-12,GIB,EU,Gibraltar,36.132235,-5.352273,158704877,3378774,,,,,False,False,GI
2021-06-12,GRC,EU,Greece,38.275283,23.810343,158704877,3378774,,,,,True,True,EL
2021-06-12,GRL,NA,Greenland,71.702379,-42.177174,158704877,3378774,,,,,False,False,
2021-06-12,GRD,NA,Grenada,12.152588,-61.689557,158704877,3378774,,,,,False,False,GD
2021-06-12,GLP,NA,Guadeloupe,16.192207,-61.272382,158704877,3378774,,,,,False,False,
2021-06-12,GUM,OC,Guam,13.446472,144.786613,158704877,3378774,,,,,False,False,GU
2021-06-12,GTM,NA,Guatemala,15.776261,-90.229744,158704877,3378774,,,,,False,False,GT
2021-06-12,GGY,EU,Guernsey,49.575693,-2.42318,158704877,3378774,,,,,False,False,GG
2021-06-12,GIN,AF,Guinea,9.934887,-11.283845,158704877,3378774,,,,,False,False,GN
2021-06-06,GNB,AF,Guinea Bissau,11.802527,-15.177029,168064776,3616118,0,164448658,0,0,False,False,GW
2021-06-12,GUY,SA,Guyana,4.866324,-58.932507,158704877,3378774,,,,,False,False,GY
2021-06-12,HTI,NA,Haiti,19.054426,-73.045971,158704877,3378774,,,,,False,False,HT
2021-06-12,VAT,EU,Holy See,41.903859,12.452041,158704877,3378774,,,,,False,False,
2021-06-12,HND,NA,Honduras,14.746333,-86.253097,158704877,3378774,,,,,False,False,HN
2021-06-11,HUN,EU,Hungary,47.164638,19.508944,806790,29904,724614,52272,442,51,True,True,HU
2021-06-12,ISL,EU,Iceland,64.963942,-19.021169,158704877,3378774,,,,,False,True,IS
2021-06-12,IND,AS,India,21.125681,82.794998,158704877,3378774,,,,,False,False,IN
2021-06-12,IDN,AS,Indonesia,-2.518722,118.015568,158704877,3378774,,,,,False,False,ID
2021-06-06,IRN,AS,Iran,32.420653,53.682375,168064776,3616118,0,164448658,0,0,False,False,IR
2021-06-12,IRQ,AS,Iraq,33.223737,43.685901,158704877,3378774,,,,,False,False,IQ
2021-06-12,IRL,EU,Ireland,53.41975,-8.240472,266489,4941,,,14430,1543,True,True,IE
2021-06-12,IMN,EU,Isle of Man,54.23782,-4.555111,158704877,3378774,,,,,False,False,IM
2021-06-12,ISR,AS,Israel,31.418388,35.073541,158704877,3378774,,,,,False,False,IL
2021-06-12,ITA,EU,Italy,41.873987,12.564167,4243482,126976,3954097,162409,4229,574,True,True,IT
2021-06-12,JAM,NA,Jamaica,18.115265,-77.27348,158704877,3378774,,,,,False,False,JM
2021-06-12,JPN,AS,Japan,34.886306,134.379711,158704877,3378774,,,,,False,False,JP
2021-06-12,JEY,EU,Jersey,49.217445,-2.141056,158704877,3378774,,,,,False,False,JE
2021-06-12,JOR,AS,Jordan,31.276778,37.130583,158704877,3378774,,,,,False,False,JO
2021-06-12,KAZ,AS,Kazakhstan,48.193764,66.902264,158704877,3378774,,,,,False,False,KZ
2021-06-12,KEN,AF,Kenya,0.170945,37.903969,158704877,3378774,,,,,False,False,KE
2021-06-12,KIR,OC,Kiribati,-3.358734,9.670395,158704877,3378774,,,,,False,False,
2021-06-06,XKX,EU,Kosovo,41.85637,21.803351,168064776,3616118,0,164448658,0,0,False,False,XK
2021-06-12,KWT,AS,Kuwait,29.310278,47.493515,158704877,3378774,,,,,False,False,KW
2021-06-12,KGZ,AS,Kyrgyzstan,41.205528,74.779888,158704877,3378774,,,,,False,False,KG
2021-06-06,LAO,AS,Laos,18.205208,103.895043,168064776,3616118,0,164448658,0,0,False,False,LA
2021-06-12,LVA,EU,Latvia,56.875584,24.607722,135940,2451,,,,,True,True,LV
2021-06-12,LBN,AS,Lebanon,33.872639,35.876736,158704877,3378774,,,,,False,False,LB
2021-06-12,LSO,AF,Lesotho,-29.620511,28.247414,158704877,3378774,,,,,False,False,LS
2021-06-12,LBR,AF,Liberia,6.452424,-9.428598,158704877,3378774,,,,,False,False,LR
2021-06-12,LBY,AF,Libya,26.338522,17.268816,158704877,3378774,,,,,False,False,LY
2021-06-12,LIE,EU,Liechtenstein,47.164696,9.555,158704877,3378774,,,,,False,False,LI
2021-06-11,LTU,EU,Lithuania,55.174112,23.906736,277623,4335,263216,10072,,,True,True,LT
2021-06-10,LUX,EU,Luxembourg,49.815764,6.131514,70406,818,,,,,True,True,LU
2021-06-12,MDG,AF,Madagascar,-18.777192,46.854328,158704877,3378774,,,,,False,False,MG
2021-06-12,MWI,AF,Malawi,-13.24627,34.295385,158704877,3378774,,,,,False,False,MW
2021-06-12,MYS,AS,Malaysia,4.109319,109.455475,158704877,3378774,,,,,False,False,MY
2021-06-12,MDV,AS,Maldives,3.202833,73.165249,158704877,3378774,,,,,False,False,MV
2021-06-12,MLI,AF,Mali,17.579757,-3.998823,158704877,3378774,,,,,False,False,ML
2021-06-12,MLT,EU,Malta,35.946151,14.384612,30581,419,30100,62,,,True,True,MT
2021-06-12,MHL,OC,Marshall Islands,10.10382,168.728363,158704877,3378774,,,,,False,False,
2021-06-12,MTQ,NA,Martinique,14.635541,-61.022814,158704877,3378774,,,,,False,False,
2021-06-12,MRT,AF,Mauritania,21.00681,-10.947098,158704877,3378774,,,,,False,False,MR
2021-06-12,MUS,AF,Mauritius,-15.422486,60.006449,158704877,3378774,,,,,False,False,MU
2021-06-12,MYT,AF,Mayotte,-12.824511,45.165455,158704877,3378774,,,,,False,False,
2021-06-12,MEX,NA,Mexico,23.624813,-102.57867,158704877,3378774,,,,,False,False,MX
2021-06-11,MDA,EU,Moldova,46.979527,28.377195,255715,6149,248501,1065,,,False,False,MD
2021-06-12,MCO,EU,Monaco,43.738348,7.424451,158704877,3378774,,,,,False,False,MC
2021-06-12,MNG,AS,Mongolia,46.860945,103.836986,158704877,3378774,,,,,False,False,MN
2021-06-12,MNE,EU,Montenegro,42.710152,19.410069,99928,1598,,,61,,False,True,ME
2021-06-12,MSR,NA,Montserrat,16.749415,-62.192741,158704877,3378774,,,,,False,False,MS
2021-06-12,MAR,AF,Morocco,31.792306,-7.080168,158704877,3378774,,,,,False,False,MA
2021-06-12,MOZ,AF,Mozambique,-18.670284,35.530157,158704877,3378774,,,,,False,False,MZ
2021-06-06,MMR,AS,"Myanmar, Union of",19.163916,96.68303,168064776,3616118,0,164448658,0,0,False,False,MM
2021-06-12,NAM,AF,Namibia,-22.965662,18.486165,158704877,3378774,,,,,False,False,NA
2021-06-12,NRU,OC,Nauru,-0.52832,166.922157,158704877,3378774,,,,,False,False,NR
2021-06-12,NPL,AS,Nepal,28.395056,84.127803,158704877,3378774,,,,,False,False,NP
2021-06-12,NLD,EU,Netherlands,52.133057,5.29525,1671703,23847,0,1647856,42577,0,True,True,NL
2021-06-12,NCL,OC,New Caledonia,-21.123889,165.846901,158704877,3378774,,,,,False,False,NC
2021-06-12,NZL,OC,New Zealand,-40.9006,174.886,158704877,3378774,,,,,False,False,NZ
2021-06-12,NIC,NA,Nicaragua,12.866726,-85.214298,158704877,3378774,,,,,False,False,NI
2021-06-12,NER,AF,Niger,17.611,8.080946,158704877,3378774,,,,,False,False,NE
2021-06-12,NGA,AF,Nigeria,9.084575,8.674252,158704877,3378774,,,,,False,False,NG
2021-06-12,NIU,OC,Niue,-19.051631,-169.86309,158704877,3378774,,,,,False,False,
2021-06-12,MKD,EU,North Macedonia,41.611,21.751417,158704877,3378774,,,,,False,True,MK
2021-06-06,MNP,OC,Northern Mariana Islands,17.331835,145.47577,168064776,3616118,0,164448658,0,0,False,False,MP
2021-06-11,NOR,EU,Norway,64.583013,17.86411,125389,789,0,124600,4563,872,False,True,NO
2021-06-12,OMN,AS,Oman,21.516861,55.859291,158704877,3378774,,,,,False,False,OM
2021-06-12,PAK,AS,Pakistan,30.441861,69.359766,158704877,3378774,,,,,False,False,PK
2021-06-12,PLW,OC,Palau,5.63663,132.920475,158704877,3378774,,,,,False,False,PW
2021-06-06,PSE,AS,Palestine,31.881464,34.894978,168064776,3616118,0,164448658,0,0,False,False,PS
2021-06-12,PAN,NA,Panama,8.41771,-80.112777,158704877,3378774,,,,,False,False,PA
2021-06-12,PNG,OC,Papua New Guinea,-6.48825,148.403152,158704877,3378774,,,,,False,False,PG
2021-06-12,PRY,SA,Paraguay,-23.451389,-58.453215,158704877,3378774,,,,,False,False,PY
2021-06-12,PER,SA,Peru,-9.181352,-75.002365,158704877,3378774,,,,,False,False,PE
2021-06-12,PHL,AS,Philippines,12.881958,121.76654,158704877,3378774,,,,,False,False,PH
2021-06-12,POL,EU,Poland,51.92275,19.136875,2877243,74562,2648207,154474,,,True,True,PL
2021-06-11,PRT,EU,Portugal,39.553444,-7.839319,855972,17044,814318,24610,306,72,True,True,PT
2021-06-12,PRI,NA,Puerto Rico,18.223285,-66.592731,158704877,3378774,,,,,False,False,PR
2021-06-12,QAT,AS,Qatar,25.318833,51.19693,158704877,3378774,,,,,False,False,QA
2021-06-12,REU,AF,Réunion,-21.114533,55.532062,158704877,3378774,,,,,False,False,
2021-06-12,ROU,EU,Romania,45.947125,24.980514,1079197,31804,,,,,True,True,RO
2021-06-12,RUS,EU,Russian Fed.,61.523111,-74.9,5193964,128189,4792169,273606,0,0,False,False,RU
2021-06-12,RWA,AF,Rwanda,-1.94708,29.876376,158704877,3378774,,,,,False,False,RW
2021-06-12,SHN,AF,Saint Helena,-11.953679,-10.029991,158704877,3378774,,,,,False,False,
2021-06-12,KNA,NA,Saint Kitts and Nevis,17.257731,-62.706413,158704877,3378774,,,,,False,False,KN
2021-06-12,LCA,NA,Saint Lucia,13.904011,-60.974176,158704877,3378774,,,,,False,False,LC
2021-06-12,SPM,NA,Saint Pierre and Miquelon,46.966164,-56.336825,158704877,3378774,,,,,False,False,
2021-06-12,VCT,NA,Saint Vincent and the Grenadines,12.980909,-61.287392,158704877,3378774,,,,,False,False,VC
2021-06-06,BLM,NA,Saint-Barthélemy,17.903496,-62.831448,168064776,3616118,0,164448658,0,0,False,False,BL
2021-06-12,WSM,OC,Samoa,-13.736573,-172.10717,158704877,3378774,,,,,False,False,
2021-06-12,SMR,EU,San Marino,43.942973,12.460035,158704877,3378774,,,,,False,False,SM
2021-06-12,STP,AF,Sao Tome and Principe,0.863044,6.968272,158704877,3378774,,,,,False,False,ST
2021-06-12,SAU,AS,Saudi Arabia,23.886291,45.081139,158704877,3378774,,,,,False,False,SA
2021-06-12,SEN,AF,Senegal,14.499454,-14.445562,158704877,3378774,,,,,False,False,SN
2021-06-12,SRB,EU,Serbia,44.206802,20.911009,158704877,3378774,,,,,False,True,RS
2021-06-12,SYC,AF,Seychelles,-7.018792,51.242138,158704877,3378774,,,,,False,False,SC
2021-06-12,SLE,AF,Sierra Leone,8.464806,-11.795935,158704877,3378774,,,,,False,False,SL
2021-06-12,SGP,AS,Singapore,1.364917,103.822872,158704877,3378774,,,,,False,False,SG
2021-06-06,SXM,NA,Sint Maarten (Dutch part),18.04097,-63.078516,168064776,3616118,0,164448658,0,0,False,False,SX
2021-06-12,SVK,EU,Slovakia,48.665639,19.709097,390984,12436,,,209,24,True,True,SK
2021-06-11,SVN,EU,Slovenia,46.145528,14.974541,256350,4717,14342,237291,138,44,True,True,SI
2021-06-12,SLB,OC,Solomon Islands,-9.220083,161.244735,158704877,3378774,,,,,False,False,SB
2021-06-12,SOM,AF,Somalia,5.152149,46.199616,158704877,3378774,,,,,False,False,SO
2021-06-12,ZAF,AF,South Africa,-28.48322,24.676997,158704877,3378774,,,,,False,False,ZA
2021-06-06,KOR,AS,South Korea,35.901696,127.735889,168064776,3616118,0,164448658,0,0,False,False,KR
2021-06-12,SSD,AF,South Sudan,7.856272,30.040413,158704877,3378774,,,,,False,False,SS
2021-06-09,ESP,EU,Spain,39.896027,-2.487694,3715454,80332,,,3704,1040,True,True,ES
2021-06-12,LKA,AS,Sri Lanka,7.874097,80.767098,158704877,3378774,,,,,False,False,LK
2021-06-12,SDN,AF,Sudan,15.45847,30.217636,158704877,3378774,,,,,False,False,SD
2021-06-12,SUR,SA,Suriname,3.917846,-56.032028,158704877,3378774,,,,,False,False,SR
2021-06-10,SWE,EU,Sweden,62.199806,17.637493,1083456,14574,,,,7544,True,True,SE
2021-06-12,CHE,EU,Switzerland,46.815514,8.224472,692453,10902,97020,584531,316,84,False,False,CH
2021-06-12,SYR,AS,Syrian Arab Republic,34.814902,39.056126,158704877,3378774,,,,,False,False,SY
2021-06-06,TWN,AS,Taiwan,21.901806,121.471,168064776,3616118,0,164448658,0,0,False,False,TW
2021-06-12,TJK,AS,Tajikistan,38.858194,71.26218,158704877,3378774,,,,,False,False,TJ
2021-06-06,TZA,AF,Tanzania,-6.368216,34.885195,168064776,3616118,0,164448658,0,0,False,False,TZ
2021-06-12,THA,AS,Thailand,13.036597,101.492515,158704877,3378774,,,,,False,False,TH
2021-06-12,TGO,AF,Togo,8.621697,0.829685,158704877,3378774,,,,,False,False,TG
2021-06-12,TKL,OC,Tokelau,-8.967362,-171.855881,158704877,3378774,,,,,False,False,
2021-06-12,TON,OC,Tonga,-18.509023,-174.794922,158704877,3378774,,,,,False,False,
2021-06-12,TTO,NA,Trinidad and Tobago,10.687223,-61.220852,158704877,3378774,,,,,False,False,TT
2021-06-12,TUN,AF,Tunisia,33.892166,9.561556,158704877,3378774,,,,,False,False,TN
2021-06-12,TUR,AS,Turkey,38.961516,35.25175,5325435,48668,5198057,78710,,,False,True,TR
2021-06-12,TKM,AS,Turkmenistan,38.968319,59.562873,158704877,3378774,,,,,False,False,TM
2021-06-12,TCA,NA,Turks and Caicos Islands,21.692252,-71.803756,158704877,3378774,,,,,False,False,TC
2021-06-12,TUV,OC,Tuvalu,-8.221571,177.964073,158704877,3378774,,,,,False,False,TV
2021-06-12,UGA,AF,Uganda,1.365188,32.304651,158704877,3378774,,,,,False,False,UG
2021-06-12,UKR,EU,Ukraine,48.379888,31.168139,2222701,51646,2125685,45370,,,False,False,UA
2021-06-12,ARE,AS,United Arab Emirates,24.358745,53.982494,158704877,3378774,,,,,False,False,AE
2021-06-11,GBR,EU,United Kingdom,54.633221,-3.432277,4550954,127884,0,4423070,,,False,True,UK
2021-06-12,USA,NA,United States of America,36.966428,-95.844032,158704877,3378774,,,,,False,False,US
2021-06-12,VIR,NA,United States Virgin Islands,18.036736,-64.801704,158704877,3378774,,,,,False,False,VI
2021-06-12,URY,SA,Uruguay,-32.53152,-55.758328,158704877,3378774,,,,,False,False,UY
2021-06-12,UZB,AS,Uzbekistan,41.379722,64.564459,158704877,3378774,,,,,False,False,UZ
2021-06-12,VUT,OC,Vanuatu,-16.661195,168.214882,158704877,3378774,,,,,False,False,VU
2021-06-06,VEN,SA,Venezuela,6.414107,-66.578926,168064776,3616118,0,164448658,0,0,False,False,VE
2021-06-06,VNM,AS,Vietnam,15.974222,105.806431,168064776,3616118,0,164448658,0,0,False,False,VN
2021-06-06,ESH,AF,Western Sahara,24.221916,-12.886729,168064776,3616118,0,164448658,0,0,False,False,EH
2021-06-06,WWW,WW,Whole Globe,0,0,168064776,3616118,0,164448658,0,0,False,False,
2021-06-12,YEM,AS,Yemen,15.555545,48.531539,158704877,3378774,,,,,False,False,YE
2021-06-12,ZMB,AF,Zambia,-13.151917,27.852537,158704877,3378774,,,,,False,False,ZM
2021-06-12,ZWE,AF,Zimbabwe,-19.013286,29.146667,158704877,3378774,,,,,False,False,ZW
