Date,iso3,Continent,CountryName,lat,lon,CumulativePositive,CumulativeDeceased,CumulativeRecovered,CurrentlyPositive,Hospitalized,IntensiveCare,EUcountry,EUCPMcountry,NUTS
2021-09-28,AFG,AS,Afghanistan,33.930445,67.678945,206121951,4181902,,,,,False,False,AF
2021-09-28,ALB,EU,Albania,41.156986,20.181222,168782,2668,155678,10436,152,25,False,False,AL
2021-09-28,DZA,AF,Algeria,28.026875,1.65284,206121951,4181902,,,,,False,False,DZ
2021-09-28,ASM,OC,American Samoa,-12.716089,-170.253983,206121951,4181902,,,,,False,False,
2021-09-28,AND,EU,Andorra,42.542268,1.596865,15192,130,,,0,,False,False,AD
2021-09-28,AGO,AF,Angola,-11.209451,17.880669,206121951,4181902,,,,,False,False,AO
2021-09-28,AIA,NA,Anguilla,18.225119,-63.07213,206121951,4181902,,,,,False,False,AI
2021-09-28,ATG,NA,Antigua and Barbuda,17.363183,-61.789423,206121951,4181902,,,,,False,False,AG
2021-09-28,ARG,SA,Argentina,-38.421295,-63.587403,206121951,4181902,,,,,False,False,AR
2021-09-28,ARM,AS,Armenia,40.066181,45.111108,206121951,4181902,,,,,False,False,AM
2021-09-28,ABW,NA,Aruba,12.517713,-69.965112,206121951,4181902,,,,,False,False,AW
2021-09-28,AUS,OC,Australia,-26.853388,133.275154,206121951,4181902,,,,,False,False,AU
2021-09-28,AUT,EU,Austria,47.697542,13.349319,737400,10762,697513,29125,648,239,True,True,AT
2021-09-28,AZE,AS,Azerbaijan,40.147396,47.572098,206121951,4181902,,,,,False,False,AZ
2021-09-28,BHS,NA,Bahamas,24.885993,-76.709892,206121951,4181902,,,,,False,False,BS
2021-09-28,BHR,AS,Bahrain,26.039722,50.559306,206121951,4181902,,,,,False,False,BH
2021-09-28,BGD,AS,Bangladesh,23.68764,90.351002,206121951,4181902,,,,,False,False,BD
2021-09-28,BRB,NA,Barbados,13.18355,-59.534649,206121951,4181902,,,,,False,False,BB
2021-09-29,BLR,EU,Belarus,53.711111,27.973847,536097,4114,,,,,False,False,BY
2021-09-27,BEL,EU,Belgium,50.499527,4.475402,1238358,25568,,,703,210,True,True,BE
2021-09-28,BLZ,NA,Belize,17.192929,-88.5009,206121951,4181902,,,,,False,False,BZ
2021-09-28,BEN,AF,Benin,9.322048,2.313138,206121951,4181902,,,,,False,False,BJ
2021-09-28,BMU,NA,Bermuda,32.320236,-64.774022,206121951,4181902,,,,,False,False,BM
2021-09-28,BTN,AS,Bhutan,27.515709,90.442455,206121951,4181902,,,,,False,False,BT
2021-09-19,BOL,SA,Bolivia,-16.28835,-63.549429,211967555,4407466,0,207560089,0,0,False,False,BO
2021-09-19,BES,NA,"Bonaire, Saint Eustatius and Saba",12.160842,-68.304383,211967555,4407466,0,207560089,0,0,False,False,BQ
2021-09-29,BIH,EU,Bosnia and Herzegovina,43.892652,17.670584,233775,10574,,,,,False,False,BA
2021-09-28,BWA,AF,Botswana,-22.344029,24.680158,206121951,4181902,,,,,False,False,BW
2021-09-28,BRA,SA,Brazil,-14.242915,-53.189267,206121951,4181902,,,,,False,False,BR
2021-09-28,VGB,NA,British Virgin Islands,18.573601,-64.492065,206121951,4181902,,,,,False,False,VG
2021-09-19,BRN,AS,Brunei,4.525125,114.715443,211967555,4407466,0,207560089,0,0,False,False,BN
2021-09-23,BGR,EU,Bulgaria,42.729862,25.491667,487588,20251,426266,41071,,,True,True,BG
2021-09-28,BFA,AF,Burkina Faso,12.24185,-1.55676,206121951,4181902,,,,,False,False,BF
2021-09-28,BDI,AF,Burundi,-3.387918,29.920395,206121951,4181902,,,,,False,False,BI
2021-09-28,CPV,AF,Cabo Verde,16.0026,-24.014095,206121951,4181902,,,,,False,False,CV
2021-09-28,KHM,AS,Cambodia,12.54775,104.98386,206121951,4181902,,,,,False,False,KH
2021-09-28,CMR,AF,Cameroon,7.365302,12.343439,206121951,4181902,,,,,False,False,CM
2021-09-28,CAN,NA,Canada,62.393303,-96.818145,206121951,4181902,,,,,False,False,CA
2021-09-28,CYM,NA,Cayman Islands,19.512365,-80.580025,206121951,4181902,,,,,False,False,KY
2021-09-28,CAF,AF,Central African Republic,6.614041,20.941759,206121951,4181902,,,,,False,False,CF
2021-09-28,TCD,AF,Chad,15.445718,18.738068,206121951,4181902,,,,,False,False,TD
2021-09-28,CHL,SA,Chile,-36.711951,-73.601704,206121951,4181902,,,,,False,False,CL
2021-09-28,CHN,AS,China,34.668138,104.165802,206121951,4181902,,,,,False,False,CN
2021-09-28,COL,SA,Colombia,4.577317,-74.298973,206121951,4181902,,,,,False,False,CO
2021-09-28,COM,AF,Comoros,-11.875119,43.877007,206121951,4181902,,,,,False,False,KM
2021-09-19,COD,AF,"Congo, Democratic Republic of the",-4.034788,21.755028,211967555,4407466,0,207560089,0,0,False,False,CD
2021-09-19,COG,AF,"Congo, Rep. Of",-0.662071,14.927424,211967555,4407466,0,207560089,0,0,False,False,CG
2021-09-28,COK,OC,Cook Islands,-15.983639,-159.202896,206121951,4181902,,,,,False,False,
2021-09-28,CRI,NA,Costa Rica,9.624897,-84.253308,206121951,4181902,,,,,False,False,CR
2021-09-19,CIV,AF,Cote d'Ivoire,7.546855,-5.547099,211967555,4407466,0,207560089,0,0,False,False,CI
2021-09-26,HRV,EU,Croatia,44.48732,16.460306,399891,8595,355542,35754,,,True,True,HR
2021-09-28,CUB,NA,Cuba,21.527062,-79.544601,206121951,4181902,,,,,False,False,CU
2021-09-28,CUW,NA,Curaçao,12.209208,-68.945576,206121951,4181902,,,,,False,False,CW
2021-09-27,CYP,EU,Cyprus,35.167406,33.435499,120020,635,114963,4422,2460,,True,True,CY
2021-09-28,CZE,EU,Czech Republic,49.800901,15.478153,1690758,30455,1654019,6284,,,True,True,CZ
2021-09-29,DNK,EU,Denmark,56.155403,11.617223,358369,2654,350776,4939,89,0,True,True,DK
2021-09-28,DJI,AF,Djibouti,11.808375,42.595222,206121951,4181902,,,,,False,False,DJ
2021-09-28,DMA,NA,Dominica,15.416749,-61.36413,206121951,4181902,,,,,False,False,DM
2021-09-28,DOM,NA,Dominican Republic,18.736509,-70.161744,206121951,4181902,,,,,False,False,DO
2021-09-19,TLS,OC,East Timor,-8.79973,125.677345,211967555,4407466,0,207560089,0,0,False,False,TL
2021-09-28,ECU,SA,Ecuador,-1.779901,-78.131592,206121951,4181902,,,,,False,False,EC
2021-09-28,EGY,AF,Egypt,26.696362,30.246486,206121951,4181902,,,,,False,False,EG
2021-09-28,SLV,NA,El Salvador,13.796873,-88.910412,206121951,4181902,,,,,False,False,SV
2021-09-28,GNQ,AF,Equatorial Guinea,1.633925,10.341295,206121951,4181902,,,,,False,False,GQ
2021-09-28,ERI,AF,Eritrea,15.18132,39.786709,206121951,4181902,,,,,False,False,ER
2021-09-29,EST,EU,Estonia,58.596209,25.023778,155469,,,,,,True,True,EE
2021-09-28,ETH,AF,Ethiopia,9.148086,40.493059,206121951,4181902,,,,,False,False,ET
2021-09-19,FRO,EU,Faeroe Islands,61.897846,-6.928791,211967555,4407466,0,207560089,0,0,False,False,
2021-09-28,FLK,SA,Falkland Islands (Malvinas),-51.800581,-59.528839,206121951,4181902,,,,,False,False,FK
2021-09-28,FJI,OC,Fiji,-16.578041,178.416339,206121951,4181902,,,,,False,False,FJ
2021-09-29,FIN,EU,Finland,64.952416,26.068944,140891,846,0,140045,,,True,True,FI
2021-08-12,FRA,EU,France,46.232193,2.209667,6216600,85963,397162,5733475,9465,1807,True,True,FR
2021-09-28,GUF,SA,French Guiana,3.951795,-53.07823,206121951,4181902,,,,,False,False,
2021-09-28,PYF,OC,French Polynesia,-17.778572,-143.903496,206121951,4181902,,,,,False,False,PF
2021-09-28,GAB,AF,Gabon,-0.828097,11.598909,206121951,4181902,,,,,False,False,GA
2021-09-28,GMB,AF,Gambia,13.445411,-15.311436,206121951,4181902,,,,,False,False,GM
2021-09-28,GEO,AS,Georgia,42.319847,43.368055,206121951,4181902,,,,,False,False,GE
2021-09-29,DEU,EU,Germany,51.165706,10.452764,4203573,93504,3989700,120369,,,True,True,DE
2021-09-28,GHA,AF,Ghana,7.955012,-1.03182,206121951,4181902,,,,,False,False,GH
2021-09-28,GIB,EU,Gibraltar,36.132235,-5.352273,206121951,4181902,,,,,False,False,GI
2021-09-28,GRC,EU,Greece,38.275283,23.810343,206121951,4181902,,,,,True,True,EL
2021-09-28,GRL,NA,Greenland,71.702379,-42.177174,206121951,4181902,,,,,False,False,
2021-09-28,GRD,NA,Grenada,12.152588,-61.689557,206121951,4181902,,,,,False,False,GD
2021-09-28,GLP,NA,Guadeloupe,16.192207,-61.272382,206121951,4181902,,,,,False,False,
2021-09-28,GUM,OC,Guam,13.446472,144.786613,206121951,4181902,,,,,False,False,GU
2021-09-28,GTM,NA,Guatemala,15.776261,-90.229744,206121951,4181902,,,,,False,False,GT
2021-09-28,GGY,EU,Guernsey,49.575693,-2.42318,206121951,4181902,,,,,False,False,GG
2021-09-28,GIN,AF,Guinea,9.934887,-11.283845,206121951,4181902,,,,,False,False,GN
2021-09-19,GNB,AF,Guinea Bissau,11.802527,-15.177029,211967555,4407466,0,207560089,0,0,False,False,GW
2021-09-28,GUY,SA,Guyana,4.866324,-58.932507,206121951,4181902,,,,,False,False,GY
2021-09-28,HTI,NA,Haiti,19.054426,-73.045971,206121951,4181902,,,,,False,False,HT
2021-09-28,VAT,EU,Holy See,41.903859,12.452041,206121951,4181902,,,,,False,False,
2021-09-28,HND,NA,Honduras,14.746333,-86.253097,206121951,4181902,,,,,False,False,HN
2021-09-28,HUN,EU,Hungary,47.164638,19.508944,821526,30179,783815,7532,513,74,True,True,HU
2021-09-28,ISL,EU,Iceland,64.963942,-19.021169,206121951,4181902,,,,,False,True,IS
2021-09-28,IND,AS,India,21.125681,82.794998,206121951,4181902,,,,,False,False,IN
2021-09-28,IDN,AS,Indonesia,-2.518722,118.015568,206121951,4181902,,,,,False,False,ID
2021-09-19,IRN,AS,Iran,32.420653,53.682375,211967555,4407466,0,207560089,0,0,False,False,IR
2021-09-28,IRQ,AS,Iraq,33.223737,43.685901,206121951,4181902,,,,,False,False,IQ
2021-09-28,IRL,EU,Ireland,53.41975,-8.240472,387218,5209,,,16452,1842,True,True,IE
2021-09-28,IMN,EU,Isle of Man,54.23782,-4.555111,206121951,4181902,,,,,False,False,IM
2021-09-28,ISR,AS,Israel,31.418388,35.073541,206121951,4181902,,,,,False,False,IL
2021-09-28,ITA,EU,Italy,41.873987,12.564167,4665049,130807,4435370,98872,3877,459,True,True,IT
2021-09-28,JAM,NA,Jamaica,18.115265,-77.27348,206121951,4181902,,,,,False,False,JM
2021-09-28,JPN,AS,Japan,34.886306,134.379711,206121951,4181902,,,,,False,False,JP
2021-09-28,JEY,EU,Jersey,49.217445,-2.141056,206121951,4181902,,,,,False,False,JE
2021-09-28,JOR,AS,Jordan,31.276778,37.130583,206121951,4181902,,,,,False,False,JO
2021-09-28,KAZ,AS,Kazakhstan,48.193764,66.902264,206121951,4181902,,,,,False,False,KZ
2021-09-28,KEN,AF,Kenya,0.170945,37.903969,206121951,4181902,,,,,False,False,KE
2021-09-28,KIR,OC,Kiribati,-3.358734,9.670395,206121951,4181902,,,,,False,False,
2021-09-19,XKX,EU,Kosovo,41.85637,21.803351,211967555,4407466,0,207560089,0,0,False,False,XK
2021-09-28,KWT,AS,Kuwait,29.310278,47.493515,206121951,4181902,,,,,False,False,KW
2021-09-28,KGZ,AS,Kyrgyzstan,41.205528,74.779888,206121951,4181902,,,,,False,False,KG
2021-09-19,LAO,AS,Laos,18.205208,103.895043,211967555,4407466,0,207560089,0,0,False,False,LA
2021-09-29,LVA,EU,Latvia,56.875584,24.607722,157083,2706,,,,,True,True,LV
2021-09-28,LBN,AS,Lebanon,33.872639,35.876736,206121951,4181902,,,,,False,False,LB
2021-09-28,LSO,AF,Lesotho,-29.620511,28.247414,206121951,4181902,,,,,False,False,LS
2021-09-28,LBR,AF,Liberia,6.452424,-9.428598,206121951,4181902,,,,,False,False,LR
2021-09-28,LBY,AF,Libya,26.338522,17.268816,206121951,4181902,,,,,False,False,LY
2021-09-28,LIE,EU,Liechtenstein,47.164696,9.555,206121951,4181902,,,,,False,False,LI
2021-09-28,LTU,EU,Lithuania,55.174112,23.906736,329869,4965,302106,22798,,,True,True,LT
2021-09-27,LUX,EU,Luxembourg,49.815764,6.131514,77998,835,,,,,True,True,LU
2021-09-28,MDG,AF,Madagascar,-18.777192,46.854328,206121951,4181902,,,,,False,False,MG
2021-09-28,MWI,AF,Malawi,-13.24627,34.295385,206121951,4181902,,,,,False,False,MW
2021-09-28,MYS,AS,Malaysia,4.109319,109.455475,206121951,4181902,,,,,False,False,MY
2021-09-28,MDV,AS,Maldives,3.202833,73.165249,206121951,4181902,,,,,False,False,MV
2021-09-28,MLI,AF,Mali,17.579757,-3.998823,206121951,4181902,,,,,False,False,ML
2021-09-29,MLT,EU,Malta,35.946151,14.384612,37127,457,35941,729,,,True,True,MT
2021-09-28,MHL,OC,Marshall Islands,10.10382,168.728363,206121951,4181902,,,,,False,False,
2021-09-28,MTQ,NA,Martinique,14.635541,-61.022814,206121951,4181902,,,,,False,False,
2021-09-28,MRT,AF,Mauritania,21.00681,-10.947098,206121951,4181902,,,,,False,False,MR
2021-09-28,MUS,AF,Mauritius,-15.422486,60.006449,206121951,4181902,,,,,False,False,MU
2021-09-28,MYT,AF,Mayotte,-12.824511,45.165455,206121951,4181902,,,,,False,False,
2021-09-28,MEX,NA,Mexico,23.624813,-102.57867,206121951,4181902,,,,,False,False,MX
2021-09-28,MDA,EU,Moldova,46.979527,28.377195,291115,6732,275115,9268,,,False,False,MD
2021-09-28,MCO,EU,Monaco,43.738348,7.424451,206121951,4181902,,,,,False,False,MC
2021-09-28,MNG,AS,Mongolia,46.860945,103.836986,206121951,4181902,,,,,False,False,MN
2021-09-29,MNE,EU,Montenegro,42.710152,19.410069,131020,1919,,,0,,False,True,ME
2021-09-28,MSR,NA,Montserrat,16.749415,-62.192741,206121951,4181902,,,,,False,False,MS
2021-09-28,MAR,AF,Morocco,31.792306,-7.080168,206121951,4181902,,,,,False,False,MA
2021-09-28,MOZ,AF,Mozambique,-18.670284,35.530157,206121951,4181902,,,,,False,False,MZ
2021-09-19,MMR,AS,"Myanmar, Union of",19.163916,96.68303,211967555,4407466,0,207560089,0,0,False,False,MM
2021-09-28,NAM,AF,Namibia,-22.965662,18.486165,206121951,4181902,,,,,False,False,NA
2021-09-28,NRU,OC,Nauru,-0.52832,166.922157,206121951,4181902,,,,,False,False,NR
2021-09-28,NPL,AS,Nepal,28.395056,84.127803,206121951,4181902,,,,,False,False,NP
2021-09-29,NLD,EU,Netherlands,52.133057,5.29525,2001347,24306,0,1977041,44666,0,True,True,NL
2021-09-28,NCL,OC,New Caledonia,-21.123889,165.846901,206121951,4181902,,,,,False,False,NC
2021-09-28,NZL,OC,New Zealand,-40.9006,174.886,206121951,4181902,,,,,False,False,NZ
2021-09-28,NIC,NA,Nicaragua,12.866726,-85.214298,206121951,4181902,,,,,False,False,NI
2021-09-28,NER,AF,Niger,17.611,8.080946,206121951,4181902,,,,,False,False,NE
2021-09-28,NGA,AF,Nigeria,9.084575,8.674252,206121951,4181902,,,,,False,False,NG
2021-09-28,NIU,OC,Niue,-19.051631,-169.86309,206121951,4181902,,,,,False,False,
2021-09-28,MKD,EU,North Macedonia,41.611,21.751417,206121951,4181902,,,,,False,True,MK
2021-09-19,MNP,OC,Northern Mariana Islands,17.331835,145.47577,211967555,4407466,0,207560089,0,0,False,False,MP
2021-09-28,NOR,EU,Norway,64.583013,17.86411,184105,851,0,183254,5194,983,False,True,NO
2021-09-28,OMN,AS,Oman,21.516861,55.859291,206121951,4181902,,,,,False,False,OM
2021-09-28,PAK,AS,Pakistan,30.441861,69.359766,206121951,4181902,,,,,False,False,PK
2021-09-28,PLW,OC,Palau,5.63663,132.920475,206121951,4181902,,,,,False,False,PW
2021-09-19,PSE,AS,Palestine,31.881464,34.894978,211967555,4407466,0,207560089,0,0,False,False,PS
2021-09-28,PAN,NA,Panama,8.41771,-80.112777,206121951,4181902,,,,,False,False,PA
2021-09-28,PNG,OC,Papua New Guinea,-6.48825,148.403152,206121951,4181902,,,,,False,False,PG
2021-09-28,PRY,SA,Paraguay,-23.451389,-58.453215,206121951,4181902,,,,,False,False,PY
2021-09-28,PER,SA,Peru,-9.181352,-75.002365,206121951,4181902,,,,,False,False,PE
2021-09-28,PHL,AS,Philippines,12.881958,121.76654,206121951,4181902,,,,,False,False,PH
2021-09-29,POL,EU,Poland,51.92275,19.136875,2905866,75623,2662132,168111,,,True,True,PL
2021-08-02,PRT,EU,Portugal,39.553444,-7.839319,1884554,34551,0,1850003,0,0,True,True,PT
2021-09-28,PRI,NA,Puerto Rico,18.223285,-66.592731,206121951,4181902,,,,,False,False,PR
2021-09-28,QAT,AS,Qatar,25.318833,51.19693,206121951,4181902,,,,,False,False,QA
2021-09-28,REU,AF,Réunion,-21.114533,55.532062,206121951,4181902,,,,,False,False,
2021-09-29,ROU,EU,Romania,45.947125,24.980514,1210315,36865,,,,,True,True,RO
2021-09-29,RUS,EU,Russian Fed.,61.523111,-74.9,7487138,208504,6653941,624693,0,0,False,False,RU
2021-09-28,RWA,AF,Rwanda,-1.94708,29.876376,206121951,4181902,,,,,False,False,RW
2021-09-28,SHN,AF,Saint Helena,-11.953679,-10.029991,206121951,4181902,,,,,False,False,
2021-09-28,KNA,NA,Saint Kitts and Nevis,17.257731,-62.706413,206121951,4181902,,,,,False,False,KN
2021-09-28,LCA,NA,Saint Lucia,13.904011,-60.974176,206121951,4181902,,,,,False,False,LC
2021-09-28,SPM,NA,Saint Pierre and Miquelon,46.966164,-56.336825,206121951,4181902,,,,,False,False,
2021-09-28,VCT,NA,Saint Vincent and the Grenadines,12.980909,-61.287392,206121951,4181902,,,,,False,False,VC
2021-09-19,BLM,NA,Saint-Barthélemy,17.903496,-62.831448,211967555,4407466,0,207560089,0,0,False,False,BL
2021-09-28,WSM,OC,Samoa,-13.736573,-172.10717,206121951,4181902,,,,,False,False,
2021-09-28,SMR,EU,San Marino,43.942973,12.460035,206121951,4181902,,,,,False,False,SM
2021-09-28,STP,AF,Sao Tome and Principe,0.863044,6.968272,206121951,4181902,,,,,False,False,ST
2021-09-28,SAU,AS,Saudi Arabia,23.886291,45.081139,206121951,4181902,,,,,False,False,SA
2021-09-28,SEN,AF,Senegal,14.499454,-14.445562,206121951,4181902,,,,,False,False,SN
2021-09-28,SRB,EU,Serbia,44.206802,20.911009,206121951,4181902,,,,,False,True,RS
2021-09-28,SYC,AF,Seychelles,-7.018792,51.242138,206121951,4181902,,,,,False,False,SC
2021-09-28,SLE,AF,Sierra Leone,8.464806,-11.795935,206121951,4181902,,,,,False,False,SL
2021-09-28,SGP,AS,Singapore,1.364917,103.822872,206121951,4181902,,,,,False,False,SG
2021-09-19,SXM,NA,Sint Maarten (Dutch part),18.04097,-63.078516,211967555,4407466,0,207560089,0,0,False,False,SX
2021-09-29,SVK,EU,Slovakia,48.665639,19.709097,411080,12620,,,463,64,True,True,SK
2021-09-26,SVN,EU,Slovenia,46.145528,14.974541,289951,4862,15315,269774,426,108,True,True,SI
2021-09-28,SLB,OC,Solomon Islands,-9.220083,161.244735,206121951,4181902,,,,,False,False,SB
2021-09-28,SOM,AF,Somalia,5.152149,46.199616,206121951,4181902,,,,,False,False,SO
2021-09-28,ZAF,AF,South Africa,-28.48322,24.676997,206121951,4181902,,,,,False,False,ZA
2021-09-19,KOR,AS,South Korea,35.901696,127.735889,211967555,4407466,0,207560089,0,0,False,False,KR
2021-09-28,SSD,AF,South Sudan,7.856272,30.040413,206121951,4181902,,,,,False,False,SS
2021-09-28,ESP,EU,Spain,39.896027,-2.487694,4953930,86358,,,2830,771,True,True,ES
2021-09-28,LKA,AS,Sri Lanka,7.874097,80.767098,206121951,4181902,,,,,False,False,LK
2021-09-28,SDN,AF,Sudan,15.45847,30.217636,206121951,4181902,,,,,False,False,SD
2021-09-28,SUR,SA,Suriname,3.917846,-56.032028,206121951,4181902,,,,,False,False,SR
2021-09-28,SWE,EU,Sweden,62.199806,17.637493,1152027,14856,,,,7843,True,True,SE
2021-09-29,CHE,EU,Switzerland,46.815514,8.224472,829500,11234,124151,694115,685,198,False,False,CH
2021-09-28,SYR,AS,Syrian Arab Republic,34.814902,39.056126,206121951,4181902,,,,,False,False,SY
2021-09-19,TWN,AS,Taiwan,21.901806,121.471,211967555,4407466,0,207560089,0,0,False,False,TW
2021-09-28,TJK,AS,Tajikistan,38.858194,71.26218,206121951,4181902,,,,,False,False,TJ
2021-09-19,TZA,AF,Tanzania,-6.368216,34.885195,211967555,4407466,0,207560089,0,0,False,False,TZ
2021-09-28,THA,AS,Thailand,13.036597,101.492515,206121951,4181902,,,,,False,False,TH
2021-09-28,TGO,AF,Togo,8.621697,0.829685,206121951,4181902,,,,,False,False,TG
2021-09-28,TKL,OC,Tokelau,-8.967362,-171.855881,206121951,4181902,,,,,False,False,
2021-09-28,TON,OC,Tonga,-18.509023,-174.794922,206121951,4181902,,,,,False,False,
2021-09-28,TTO,NA,Trinidad and Tobago,10.687223,-61.220852,206121951,4181902,,,,,False,False,TT
2021-09-28,TUN,AF,Tunisia,33.892166,9.561556,206121951,4181902,,,,,False,False,TN
2021-08-03,TUR,AS,Turkey,38.961516,35.25175,5770833,51519,,,,,False,True,TR
2021-09-28,TKM,AS,Turkmenistan,38.968319,59.562873,206121951,4181902,,,,,False,False,TM
2021-09-28,TCA,NA,Turks and Caicos Islands,21.692252,-71.803756,206121951,4181902,,,,,False,False,TC
2021-09-28,TUV,OC,Tuvalu,-8.221571,177.964073,206121951,4181902,,,,,False,False,TV
2021-09-28,UGA,AF,Uganda,1.365188,32.304651,206121951,4181902,,,,,False,False,UG
2021-09-29,UKR,EU,Ukraine,48.379888,31.168139,2411622,56080,2251352,104190,,,False,False,UA
2021-09-28,ARE,AS,United Arab Emirates,24.358745,53.982494,206121951,4181902,,,,,False,False,AE
2021-09-24,GBR,EU,United Kingdom,54.633221,-3.432277,8094351,135983,0,7958368,,,False,True,UK
2021-09-28,USA,NA,United States of America,36.966428,-95.844032,206121951,4181902,,,,,False,False,US
2021-09-28,VIR,NA,United States Virgin Islands,18.036736,-64.801704,206121951,4181902,,,,,False,False,VI
2021-09-28,URY,SA,Uruguay,-32.53152,-55.758328,206121951,4181902,,,,,False,False,UY
2021-09-28,UZB,AS,Uzbekistan,41.379722,64.564459,206121951,4181902,,,,,False,False,UZ
2021-09-28,VUT,OC,Vanuatu,-16.661195,168.214882,206121951,4181902,,,,,False,False,VU
2021-09-19,VEN,SA,Venezuela,6.414107,-66.578926,211967555,4407466,0,207560089,0,0,False,False,VE
2021-09-19,VNM,AS,Vietnam,15.974222,105.806431,211967555,4407466,0,207560089,0,0,False,False,VN
2021-09-19,ESH,AF,Western Sahara,24.221916,-12.886729,211967555,4407466,0,207560089,0,0,False,False,EH
2021-09-19,WWW,WW,Whole Globe,0,0,211967555,4407466,0,207560089,0,0,False,False,
2021-09-28,YEM,AS,Yemen,15.555545,48.531539,206121951,4181902,,,,,False,False,YE
2021-09-28,ZMB,AF,Zambia,-13.151917,27.852537,206121951,4181902,,,,,False,False,ZM
2021-09-28,ZWE,AF,Zimbabwe,-19.013286,29.146667,206121951,4181902,,,,,False,False,ZW
