Date,iso3,Continent,CountryName,lat,lon,CumulativePositive,CumulativeDeceased,CumulativeRecovered,CurrentlyPositive,Hospitalized,IntensiveCare,EUcountry,EUCPMcountry,NUTS
2021-07-19,AFG,AS,Afghanistan,33.930445,67.678945,171894248,3654792,,,,,False,False,AF
2021-07-19,ALB,EU,Albania,41.156986,20.181222,132697,2456,130081,160,6,0,False,False,AL
2021-07-19,DZA,AF,Algeria,28.026875,1.65284,171894248,3654792,,,,,False,False,DZ
2021-07-19,ASM,OC,American Samoa,-12.716089,-170.253983,171894248,3654792,,,,,False,False,
2021-07-19,AND,EU,Andorra,42.542268,1.596865,14359,127,,,6,,False,False,AD
2021-07-19,AGO,AF,Angola,-11.209451,17.880669,171894248,3654792,,,,,False,False,AO
2021-07-19,AIA,NA,Anguilla,18.225119,-63.07213,171894248,3654792,,,,,False,False,AI
2021-07-19,ATG,NA,Antigua and Barbuda,17.363183,-61.789423,171894248,3654792,,,,,False,False,AG
2021-07-19,ARG,SA,Argentina,-38.421295,-63.587403,171894248,3654792,,,,,False,False,AR
2021-07-19,ARM,AS,Armenia,40.066181,45.111108,171894248,3654792,,,,,False,False,AM
2021-07-19,ABW,NA,Aruba,12.517713,-69.965112,171894248,3654792,,,,,False,False,AW
2021-07-19,AUS,OC,Australia,-26.853388,133.275154,171894248,3654792,,,,,False,False,AU
2021-07-18,AUT,EU,Austria,47.697542,13.349319,649607,10521,633349,5737,77,31,True,True,AT
2021-07-19,AZE,AS,Azerbaijan,40.147396,47.572098,171894248,3654792,,,,,False,False,AZ
2021-07-19,BHS,NA,Bahamas,24.885993,-76.709892,171894248,3654792,,,,,False,False,BS
2021-07-19,BHR,AS,Bahrain,26.039722,50.559306,171894248,3654792,,,,,False,False,BH
2021-07-19,BGD,AS,Bangladesh,23.68764,90.351002,171894248,3654792,,,,,False,False,BD
2021-07-19,BRB,NA,Barbados,13.18355,-59.534649,171894248,3654792,,,,,False,False,BB
2021-07-19,BLR,EU,Belarus,53.711111,27.973847,435020,3334,,,,,False,False,BY
2021-07-19,BEL,EU,Belgium,50.499527,4.475402,1107208,25213,,,265,84,True,True,BE
2021-07-19,BLZ,NA,Belize,17.192929,-88.5009,171894248,3654792,,,,,False,False,BZ
2021-07-19,BEN,AF,Benin,9.322048,2.313138,171894248,3654792,,,,,False,False,BJ
2021-07-19,BMU,NA,Bermuda,32.320236,-64.774022,171894248,3654792,,,,,False,False,BM
2021-07-19,BTN,AS,Bhutan,27.515709,90.442455,171894248,3654792,,,,,False,False,BT
2021-07-11,BOL,SA,Bolivia,-16.28835,-63.549429,180478450,3890698,0,176587752,0,0,False,False,BO
2021-07-11,BES,NA,"Bonaire, Saint Eustatius and Saba",12.160842,-68.304383,180478450,3890698,0,176587752,0,0,False,False,BQ
2021-07-19,BIH,EU,Bosnia and Herzegovina,43.892652,17.670584,205313,9669,187885,7759,,,False,False,BA
2021-07-19,BWA,AF,Botswana,-22.344029,24.680158,171894248,3654792,,,,,False,False,BW
2021-07-19,BRA,SA,Brazil,-14.242915,-53.189267,171894248,3654792,,,,,False,False,BR
2021-07-19,VGB,NA,British Virgin Islands,18.573601,-64.492065,171894248,3654792,,,,,False,False,VG
2021-07-11,BRN,AS,Brunei,4.525125,114.715443,180478450,3890698,0,176587752,0,0,False,False,BN
2021-07-20,BGR,EU,Bulgaria,42.729862,25.491667,423078,18177,397363,7538,,,True,True,BG
2021-07-19,BFA,AF,Burkina Faso,12.24185,-1.55676,171894248,3654792,,,,,False,False,BF
2021-07-19,BDI,AF,Burundi,-3.387918,29.920395,171894248,3654792,,,,,False,False,BI
2021-07-19,CPV,AF,Cabo Verde,16.0026,-24.014095,171894248,3654792,,,,,False,False,CV
2021-07-19,KHM,AS,Cambodia,12.54775,104.98386,171894248,3654792,,,,,False,False,KH
2021-07-19,CMR,AF,Cameroon,7.365302,12.343439,171894248,3654792,,,,,False,False,CM
2021-07-19,CAN,NA,Canada,62.393303,-96.818145,171894248,3654792,,,,,False,False,CA
2021-07-19,CYM,NA,Cayman Islands,19.512365,-80.580025,171894248,3654792,,,,,False,False,KY
2021-07-19,CAF,AF,Central African Republic,6.614041,20.941759,171894248,3654792,,,,,False,False,CF
2021-07-19,TCD,AF,Chad,15.445718,18.738068,171894248,3654792,,,,,False,False,TD
2021-07-19,CHL,SA,Chile,-36.711951,-73.601704,171894248,3654792,,,,,False,False,CL
2021-07-19,CHN,AS,China,34.668138,104.165802,171894248,3654792,,,,,False,False,CN
2021-07-19,COL,SA,Colombia,4.577317,-74.298973,171894248,3654792,,,,,False,False,CO
2021-07-19,COM,AF,Comoros,-11.875119,43.877007,171894248,3654792,,,,,False,False,KM
2021-07-11,COD,AF,"Congo, Democratic Republic of the",-4.034788,21.755028,180478450,3890698,0,176587752,0,0,False,False,CD
2021-07-11,COG,AF,"Congo, Rep. Of",-0.662071,14.927424,180478450,3890698,0,176587752,0,0,False,False,CG
2021-07-19,COK,OC,Cook Islands,-15.983639,-159.202896,171894248,3654792,,,,,False,False,
2021-07-19,CRI,NA,Costa Rica,9.624897,-84.253308,171894248,3654792,,,,,False,False,CR
2021-07-11,CIV,AF,Cote d'Ivoire,7.546855,-5.547099,180478450,3890698,0,176587752,0,0,False,False,CI
2021-07-19,HRV,EU,Croatia,44.48732,16.460306,361613,8240,352688,685,,,True,True,HR
2021-07-19,CUB,NA,Cuba,21.527062,-79.544601,171894248,3654792,,,,,False,False,CU
2021-07-19,CUW,NA,Curaçao,12.209208,-68.945576,171894248,3654792,,,,,False,False,CW
2021-07-18,CYP,EU,Cyprus,35.167406,33.435499,92252,467,73946,17839,1983,,True,True,CY
2021-07-19,CZE,EU,Czech Republic,49.800901,15.478153,1671372,30341,1638061,2970,,,True,True,CZ
2021-07-19,DNK,EU,Denmark,56.155403,11.617223,306944,2542,293230,11172,50,0,True,True,DK
2021-07-19,DJI,AF,Djibouti,11.808375,42.595222,171894248,3654792,,,,,False,False,DJ
2021-07-19,DMA,NA,Dominica,15.416749,-61.36413,171894248,3654792,,,,,False,False,DM
2021-07-19,DOM,NA,Dominican Republic,18.736509,-70.161744,171894248,3654792,,,,,False,False,DO
2021-07-11,TLS,OC,East Timor,-8.79973,125.677345,180478450,3890698,0,176587752,0,0,False,False,TL
2021-07-19,ECU,SA,Ecuador,-1.779901,-78.131592,171894248,3654792,,,,,False,False,EC
2021-07-19,EGY,AF,Egypt,26.696362,30.246486,171894248,3654792,,,,,False,False,EG
2021-07-19,SLV,NA,El Salvador,13.796873,-88.910412,171894248,3654792,,,,,False,False,SV
2021-07-19,GNQ,AF,Equatorial Guinea,1.633925,10.341295,171894248,3654792,,,,,False,False,GQ
2021-07-19,ERI,AF,Eritrea,15.18132,39.786709,171894248,3654792,,,,,False,False,ER
2021-07-20,EST,EU,Estonia,58.596209,25.023778,131963,,,,,,True,True,EE
2021-07-19,ETH,AF,Ethiopia,9.148086,40.493059,171894248,3654792,,,,,False,False,ET
2021-07-11,FRO,EU,Faeroe Islands,61.897846,-6.928791,180478450,3890698,0,176587752,0,0,False,False,
2021-07-19,FLK,SA,Falkland Islands (Malvinas),-51.800581,-59.528839,171894248,3654792,,,,,False,False,FK
2021-07-19,FJI,OC,Fiji,-16.578041,178.416339,171894248,3654792,,,,,False,False,FJ
2021-07-20,FIN,EU,Finland,64.952416,26.068944,100775,846,0,99929,,,True,True,FI
2021-07-19,FRA,EU,France,46.232193,2.209667,5749620,84987,387703,5276930,7041,902,True,True,FR
2021-07-19,GUF,SA,French Guiana,3.951795,-53.07823,171894248,3654792,,,,,False,False,
2021-07-19,PYF,OC,French Polynesia,-17.778572,-143.903496,171894248,3654792,,,,,False,False,PF
2021-07-19,GAB,AF,Gabon,-0.828097,11.598909,171894248,3654792,,,,,False,False,GA
2021-07-19,GMB,AF,Gambia,13.445411,-15.311436,171894248,3654792,,,,,False,False,GM
2021-07-19,GEO,AS,Georgia,42.319847,43.368055,171894248,3654792,,,,,False,False,GE
2021-07-20,DEU,EU,Germany,51.165706,10.452764,3746412,91397,3641000,14015,,,True,True,DE
2021-07-19,GHA,AF,Ghana,7.955012,-1.03182,171894248,3654792,,,,,False,False,GH
2021-07-19,GIB,EU,Gibraltar,36.132235,-5.352273,171894248,3654792,,,,,False,False,GI
2021-07-19,GRC,EU,Greece,38.275283,23.810343,171894248,3654792,,,,,True,True,EL
2021-07-19,GRL,NA,Greenland,71.702379,-42.177174,171894248,3654792,,,,,False,False,
2021-07-19,GRD,NA,Grenada,12.152588,-61.689557,171894248,3654792,,,,,False,False,GD
2021-07-19,GLP,NA,Guadeloupe,16.192207,-61.272382,171894248,3654792,,,,,False,False,
2021-07-19,GUM,OC,Guam,13.446472,144.786613,171894248,3654792,,,,,False,False,GU
2021-07-19,GTM,NA,Guatemala,15.776261,-90.229744,171894248,3654792,,,,,False,False,GT
2021-07-19,GGY,EU,Guernsey,49.575693,-2.42318,171894248,3654792,,,,,False,False,GG
2021-07-19,GIN,AF,Guinea,9.934887,-11.283845,171894248,3654792,,,,,False,False,GN
2021-07-11,GNB,AF,Guinea Bissau,11.802527,-15.177029,180478450,3890698,0,176587752,0,0,False,False,GW
2021-07-19,GUY,SA,Guyana,4.866324,-58.932507,171894248,3654792,,,,,False,False,GY
2021-07-19,HTI,NA,Haiti,19.054426,-73.045971,171894248,3654792,,,,,False,False,HT
2021-07-19,VAT,EU,Holy See,41.903859,12.452041,171894248,3654792,,,,,False,False,
2021-07-19,HND,NA,Honduras,14.746333,-86.253097,171894248,3654792,,,,,False,False,HN
2021-07-20,HUN,EU,Hungary,47.164638,19.508944,808889,30019,743449,35421,77,11,True,True,HU
2021-07-19,ISL,EU,Iceland,64.963942,-19.021169,171894248,3654792,,,,,False,True,IS
2021-07-19,IND,AS,India,21.125681,82.794998,171894248,3654792,,,,,False,False,IN
2021-07-19,IDN,AS,Indonesia,-2.518722,118.015568,171894248,3654792,,,,,False,False,ID
2021-07-11,IRN,AS,Iran,32.420653,53.682375,180478450,3890698,0,176587752,0,0,False,False,IR
2021-07-19,IRQ,AS,Iraq,33.223737,43.685901,171894248,3654792,,,,,False,False,IQ
2021-07-19,IRL,EU,Ireland,53.41975,-8.240472,285581,5018,,,14430,1543,True,True,IE
2021-07-19,IMN,EU,Isle of Man,54.23782,-4.555111,171894248,3654792,,,,,False,False,IM
2021-07-19,ISR,AS,Israel,31.418388,35.073541,171894248,3654792,,,,,False,False,IL
2021-07-19,ITA,EU,Italy,41.873987,12.564167,4289528,127874,4114129,47525,1350,162,True,True,IT
2021-07-19,JAM,NA,Jamaica,18.115265,-77.27348,171894248,3654792,,,,,False,False,JM
2021-07-19,JPN,AS,Japan,34.886306,134.379711,171894248,3654792,,,,,False,False,JP
2021-07-19,JEY,EU,Jersey,49.217445,-2.141056,171894248,3654792,,,,,False,False,JE
2021-07-19,JOR,AS,Jordan,31.276778,37.130583,171894248,3654792,,,,,False,False,JO
2021-07-19,KAZ,AS,Kazakhstan,48.193764,66.902264,171894248,3654792,,,,,False,False,KZ
2021-07-19,KEN,AF,Kenya,0.170945,37.903969,171894248,3654792,,,,,False,False,KE
2021-07-19,KIR,OC,Kiribati,-3.358734,9.670395,171894248,3654792,,,,,False,False,
2021-07-11,XKX,EU,Kosovo,41.85637,21.803351,180478450,3890698,0,176587752,0,0,False,False,XK
2021-07-19,KWT,AS,Kuwait,29.310278,47.493515,171894248,3654792,,,,,False,False,KW
2021-07-19,KGZ,AS,Kyrgyzstan,41.205528,74.779888,171894248,3654792,,,,,False,False,KG
2021-07-11,LAO,AS,Laos,18.205208,103.895043,180478450,3890698,0,176587752,0,0,False,False,LA
2021-07-20,LVA,EU,Latvia,56.875584,24.607722,138238,2547,,,,,True,True,LV
2021-07-19,LBN,AS,Lebanon,33.872639,35.876736,171894248,3654792,,,,,False,False,LB
2021-07-19,LSO,AF,Lesotho,-29.620511,28.247414,171894248,3654792,,,,,False,False,LS
2021-07-19,LBR,AF,Liberia,6.452424,-9.428598,171894248,3654792,,,,,False,False,LR
2021-07-19,LBY,AF,Libya,26.338522,17.268816,171894248,3654792,,,,,False,False,LY
2021-07-19,LIE,EU,Liechtenstein,47.164696,9.555,171894248,3654792,,,,,False,False,LI
2021-07-19,LTU,EU,Lithuania,55.174112,23.906736,279914,4404,268382,7128,,,True,True,LT
2021-07-18,LUX,EU,Luxembourg,49.815764,6.131514,72985,821,,,,,True,True,LU
2021-07-19,MDG,AF,Madagascar,-18.777192,46.854328,171894248,3654792,,,,,False,False,MG
2021-07-19,MWI,AF,Malawi,-13.24627,34.295385,171894248,3654792,,,,,False,False,MW
2021-07-19,MYS,AS,Malaysia,4.109319,109.455475,171894248,3654792,,,,,False,False,MY
2021-07-19,MDV,AS,Maldives,3.202833,73.165249,171894248,3654792,,,,,False,False,MV
2021-07-19,MLI,AF,Mali,17.579757,-3.998823,171894248,3654792,,,,,False,False,ML
2021-07-19,MLT,EU,Malta,35.946151,14.384612,32616,420,30233,1963,,,True,True,MT
2021-07-19,MHL,OC,Marshall Islands,10.10382,168.728363,171894248,3654792,,,,,False,False,
2021-07-19,MTQ,NA,Martinique,14.635541,-61.022814,171894248,3654792,,,,,False,False,
2021-07-19,MRT,AF,Mauritania,21.00681,-10.947098,171894248,3654792,,,,,False,False,MR
2021-07-19,MUS,AF,Mauritius,-15.422486,60.006449,171894248,3654792,,,,,False,False,MU
2021-07-19,MYT,AF,Mayotte,-12.824511,45.165455,171894248,3654792,,,,,False,False,
2021-07-19,MEX,NA,Mexico,23.624813,-102.57867,171894248,3654792,,,,,False,False,MX
2021-07-19,MDA,EU,Moldova,46.979527,28.377195,258007,6227,250957,823,,,False,False,MD
2021-07-19,MCO,EU,Monaco,43.738348,7.424451,171894248,3654792,,,,,False,False,MC
2021-07-19,MNG,AS,Mongolia,46.860945,103.836986,171894248,3654792,,,,,False,False,MN
2021-07-19,MNE,EU,Montenegro,42.710152,19.410069,100690,1623,,,24,,False,True,ME
2021-07-19,MSR,NA,Montserrat,16.749415,-62.192741,171894248,3654792,,,,,False,False,MS
2021-07-19,MAR,AF,Morocco,31.792306,-7.080168,171894248,3654792,,,,,False,False,MA
2021-07-19,MOZ,AF,Mozambique,-18.670284,35.530157,171894248,3654792,,,,,False,False,MZ
2021-07-11,MMR,AS,"Myanmar, Union of",19.163916,96.68303,180478450,3890698,0,176587752,0,0,False,False,MM
2021-07-19,NAM,AF,Namibia,-22.965662,18.486165,171894248,3654792,,,,,False,False,NA
2021-07-19,NRU,OC,Nauru,-0.52832,166.922157,171894248,3654792,,,,,False,False,NR
2021-07-19,NPL,AS,Nepal,28.395056,84.127803,171894248,3654792,,,,,False,False,NP
2021-07-19,NLD,EU,Netherlands,52.133057,5.29525,1807444,23916,0,1783528,42919,0,True,True,NL
2021-07-19,NCL,OC,New Caledonia,-21.123889,165.846901,171894248,3654792,,,,,False,False,NC
2021-07-19,NZL,OC,New Zealand,-40.9006,174.886,171894248,3654792,,,,,False,False,NZ
2021-07-19,NIC,NA,Nicaragua,12.866726,-85.214298,171894248,3654792,,,,,False,False,NI
2021-07-19,NER,AF,Niger,17.611,8.080946,171894248,3654792,,,,,False,False,NE
2021-07-19,NGA,AF,Nigeria,9.084575,8.674252,171894248,3654792,,,,,False,False,NG
2021-07-19,NIU,OC,Niue,-19.051631,-169.86309,171894248,3654792,,,,,False,False,
2021-07-19,MKD,EU,North Macedonia,41.611,21.751417,171894248,3654792,,,,,False,True,MK
2021-07-11,MNP,OC,Northern Mariana Islands,17.331835,145.47577,180478450,3890698,0,176587752,0,0,False,False,MP
2021-07-19,NOR,EU,Norway,64.583013,17.86411,131874,796,0,131078,4660,891,False,True,NO
2021-07-19,OMN,AS,Oman,21.516861,55.859291,171894248,3654792,,,,,False,False,OM
2021-07-19,PAK,AS,Pakistan,30.441861,69.359766,171894248,3654792,,,,,False,False,PK
2021-07-19,PLW,OC,Palau,5.63663,132.920475,171894248,3654792,,,,,False,False,PW
2021-07-11,PSE,AS,Palestine,31.881464,34.894978,180478450,3890698,0,176587752,0,0,False,False,PS
2021-07-19,PAN,NA,Panama,8.41771,-80.112777,171894248,3654792,,,,,False,False,PA
2021-07-19,PNG,OC,Papua New Guinea,-6.48825,148.403152,171894248,3654792,,,,,False,False,PG
2021-07-19,PRY,SA,Paraguay,-23.451389,-58.453215,171894248,3654792,,,,,False,False,PY
2021-07-19,PER,SA,Peru,-9.181352,-75.002365,171894248,3654792,,,,,False,False,PE
2021-07-19,PHL,AS,Philippines,12.881958,121.76654,171894248,3654792,,,,,False,False,PH
2021-07-20,POL,EU,Poland,51.92275,19.136875,2881594,75219,2652994,153381,,,True,True,PL
2021-07-14,PRT,EU,Portugal,39.553444,-7.839319,916580,17182,852269,47129,734,171,True,True,PT
2021-07-19,PRI,NA,Puerto Rico,18.223285,-66.592731,171894248,3654792,,,,,False,False,PR
2021-07-19,QAT,AS,Qatar,25.318833,51.19693,171894248,3654792,,,,,False,False,QA
2021-07-19,REU,AF,Réunion,-21.114533,55.532062,171894248,3654792,,,,,False,False,
2021-07-19,ROU,EU,Romania,45.947125,24.980514,1081190,34254,,,,,True,True,RO
2021-07-19,RUS,EU,Russian Fed.,61.523111,-74.9,5982766,151254,5359995,471517,0,0,False,False,RU
2021-07-19,RWA,AF,Rwanda,-1.94708,29.876376,171894248,3654792,,,,,False,False,RW
2021-07-19,SHN,AF,Saint Helena,-11.953679,-10.029991,171894248,3654792,,,,,False,False,
2021-07-19,KNA,NA,Saint Kitts and Nevis,17.257731,-62.706413,171894248,3654792,,,,,False,False,KN
2021-07-19,LCA,NA,Saint Lucia,13.904011,-60.974176,171894248,3654792,,,,,False,False,LC
2021-07-19,SPM,NA,Saint Pierre and Miquelon,46.966164,-56.336825,171894248,3654792,,,,,False,False,
2021-07-19,VCT,NA,Saint Vincent and the Grenadines,12.980909,-61.287392,171894248,3654792,,,,,False,False,VC
2021-07-11,BLM,NA,Saint-Barthélemy,17.903496,-62.831448,180478450,3890698,0,176587752,0,0,False,False,BL
2021-07-19,WSM,OC,Samoa,-13.736573,-172.10717,171894248,3654792,,,,,False,False,
2021-07-19,SMR,EU,San Marino,43.942973,12.460035,171894248,3654792,,,,,False,False,SM
2021-07-19,STP,AF,Sao Tome and Principe,0.863044,6.968272,171894248,3654792,,,,,False,False,ST
2021-07-19,SAU,AS,Saudi Arabia,23.886291,45.081139,171894248,3654792,,,,,False,False,SA
2021-07-19,SEN,AF,Senegal,14.499454,-14.445562,171894248,3654792,,,,,False,False,SN
2021-07-19,SRB,EU,Serbia,44.206802,20.911009,171894248,3654792,,,,,False,True,RS
2021-07-19,SYC,AF,Seychelles,-7.018792,51.242138,171894248,3654792,,,,,False,False,SC
2021-07-19,SLE,AF,Sierra Leone,8.464806,-11.795935,171894248,3654792,,,,,False,False,SL
2021-07-19,SGP,AS,Singapore,1.364917,103.822872,171894248,3654792,,,,,False,False,SG
2021-07-11,SXM,NA,Sint Maarten (Dutch part),18.04097,-63.078516,180478450,3890698,0,176587752,0,0,False,False,SX
2021-07-20,SVK,EU,Slovakia,48.665639,19.709097,392139,12531,,,48,3,True,True,SK
2021-07-18,SVN,EU,Slovenia,46.145528,14.974541,258253,4765,14560,238928,30,10,True,True,SI
2021-07-19,SLB,OC,Solomon Islands,-9.220083,161.244735,171894248,3654792,,,,,False,False,SB
2021-07-19,SOM,AF,Somalia,5.152149,46.199616,171894248,3654792,,,,,False,False,SO
2021-07-19,ZAF,AF,South Africa,-28.48322,24.676997,171894248,3654792,,,,,False,False,ZA
2021-07-11,KOR,AS,South Korea,35.901696,127.735889,180478450,3890698,0,176587752,0,0,False,False,KR
2021-07-19,SSD,AF,South Sudan,7.856272,30.040413,171894248,3654792,,,,,False,False,SS
2021-07-19,ESP,EU,Spain,39.896027,-2.487694,4161850,81119,,,6482,1039,True,True,ES
2021-07-19,LKA,AS,Sri Lanka,7.874097,80.767098,171894248,3654792,,,,,False,False,LK
2021-07-19,SDN,AF,Sudan,15.45847,30.217636,171894248,3654792,,,,,False,False,SD
2021-07-19,SUR,SA,Suriname,3.917846,-56.032028,171894248,3654792,,,,,False,False,SR
2021-07-15,SWE,EU,Sweden,62.199806,17.637493,1094287,14646,,,,7594,True,True,SE
2021-07-20,CHE,EU,Switzerland,46.815514,8.224472,702750,10948,106895,584907,128,35,False,False,CH
2021-07-19,SYR,AS,Syrian Arab Republic,34.814902,39.056126,171894248,3654792,,,,,False,False,SY
2021-07-11,TWN,AS,Taiwan,21.901806,121.471,180478450,3890698,0,176587752,0,0,False,False,TW
2021-07-19,TJK,AS,Tajikistan,38.858194,71.26218,171894248,3654792,,,,,False,False,TJ
2021-07-11,TZA,AF,Tanzania,-6.368216,34.885195,180478450,3890698,0,176587752,0,0,False,False,TZ
2021-07-19,THA,AS,Thailand,13.036597,101.492515,171894248,3654792,,,,,False,False,TH
2021-07-19,TGO,AF,Togo,8.621697,0.829685,171894248,3654792,,,,,False,False,TG
2021-07-19,TKL,OC,Tokelau,-8.967362,-171.855881,171894248,3654792,,,,,False,False,
2021-07-19,TON,OC,Tonga,-18.509023,-174.794922,171894248,3654792,,,,,False,False,
2021-07-19,TTO,NA,Trinidad and Tobago,10.687223,-61.220852,171894248,3654792,,,,,False,False,TT
2021-07-19,TUN,AF,Tunisia,33.892166,9.561556,171894248,3654792,,,,,False,False,TN
2021-07-03,TUR,AS,Turkey,38.961516,35.25175,5440368,49874,5310769,79725,,,False,True,TR
2021-07-19,TKM,AS,Turkmenistan,38.968319,59.562873,171894248,3654792,,,,,False,False,TM
2021-07-19,TCA,NA,Turks and Caicos Islands,21.692252,-71.803756,171894248,3654792,,,,,False,False,TC
2021-07-19,TUV,OC,Tuvalu,-8.221571,177.964073,171894248,3654792,,,,,False,False,TV
2021-07-19,UGA,AF,Uganda,1.365188,32.304651,171894248,3654792,,,,,False,False,UG
2021-07-20,UKR,EU,Ukraine,48.379888,31.168139,2245275,52756,2181925,10594,,,False,False,UA
2021-07-19,ARE,AS,United Arab Emirates,24.358745,53.982494,171894248,3654792,,,,,False,False,AE
2021-07-19,GBR,EU,United Kingdom,54.633221,-3.432277,5473487,128727,0,5344760,,,False,True,UK
2021-07-19,USA,NA,United States of America,36.966428,-95.844032,171894248,3654792,,,,,False,False,US
2021-07-19,VIR,NA,United States Virgin Islands,18.036736,-64.801704,171894248,3654792,,,,,False,False,VI
2021-07-19,URY,SA,Uruguay,-32.53152,-55.758328,171894248,3654792,,,,,False,False,UY
2021-07-19,UZB,AS,Uzbekistan,41.379722,64.564459,171894248,3654792,,,,,False,False,UZ
2021-07-19,VUT,OC,Vanuatu,-16.661195,168.214882,171894248,3654792,,,,,False,False,VU
2021-07-11,VEN,SA,Venezuela,6.414107,-66.578926,180478450,3890698,0,176587752,0,0,False,False,VE
2021-07-11,VNM,AS,Vietnam,15.974222,105.806431,180478450,3890698,0,176587752,0,0,False,False,VN
2021-07-11,ESH,AF,Western Sahara,24.221916,-12.886729,180478450,3890698,0,176587752,0,0,False,False,EH
2021-07-11,WWW,WW,Whole Globe,0,0,180478450,3890698,0,176587752,0,0,False,False,
2021-07-19,YEM,AS,Yemen,15.555545,48.531539,171894248,3654792,,,,,False,False,YE
2021-07-19,ZMB,AF,Zambia,-13.151917,27.852537,171894248,3654792,,,,,False,False,ZM
2021-07-19,ZWE,AF,Zimbabwe,-19.013286,29.146667,171894248,3654792,,,,,False,False,ZW
