Date,iso3,Continent,CountryName,lat,lon,CumulativePositive,CumulativeDeceased,CumulativeRecovered,CurrentlyPositive,Hospitalized,IntensiveCare,EUcountry,EUCPMcountry,NUTS
2021-06-08,AFG,AS,Afghanistan,33.930445,67.678945,155372599,3289966,,,,,False,False,AF
2021-06-08,ALB,EU,Albania,41.156986,20.181222,132397,2452,129736,209,17,6,False,False,AL
2021-06-08,DZA,AF,Algeria,28.026875,1.65284,155372599,3289966,,,,,False,False,DZ
2021-06-08,ASM,OC,American Samoa,-12.716089,-170.253983,155372599,3289966,,,,,False,False,
2021-06-08,AND,EU,Andorra,42.542268,1.596865,13781,127,,,2,,False,False,AD
2021-06-08,AGO,AF,Angola,-11.209451,17.880669,155372599,3289966,,,,,False,False,AO
2021-06-08,AIA,NA,Anguilla,18.225119,-63.07213,155372599,3289966,,,,,False,False,AI
2021-06-08,ATG,NA,Antigua and Barbuda,17.363183,-61.789423,155372599,3289966,,,,,False,False,AG
2021-06-08,ARG,SA,Argentina,-38.421295,-63.587403,155372599,3289966,,,,,False,False,AR
2021-06-08,ARM,AS,Armenia,40.066181,45.111108,155372599,3289966,,,,,False,False,AM
2021-06-08,ABW,NA,Aruba,12.517713,-69.965112,155372599,3289966,,,,,False,False,AW
2021-06-08,AUS,OC,Australia,-26.853388,133.275154,155372599,3289966,,,,,False,False,AU
2021-06-07,AUT,EU,Austria,47.697542,13.349319,643323,10388,622026,10909,280,146,True,True,AT
2021-06-08,AZE,AS,Azerbaijan,40.147396,47.572098,155372599,3289966,,,,,False,False,AZ
2021-06-08,BHS,NA,Bahamas,24.885993,-76.709892,155372599,3289966,,,,,False,False,BS
2021-06-08,BHR,AS,Bahrain,26.039722,50.559306,155372599,3289966,,,,,False,False,BH
2021-06-08,BGD,AS,Bangladesh,23.68764,90.351002,155372599,3289966,,,,,False,False,BD
2021-06-08,BRB,NA,Barbados,13.18355,-59.534649,155372599,3289966,,,,,False,False,BB
2021-06-08,BLR,EU,Belarus,53.711111,27.973847,401019,2929,,,,,False,False,BY
2021-06-08,BEL,EU,Belgium,50.499527,4.475402,1072175,25051,,,888,319,True,True,BE
2021-06-08,BLZ,NA,Belize,17.192929,-88.5009,155372599,3289966,,,,,False,False,BZ
2021-06-08,BEN,AF,Benin,9.322048,2.313138,155372599,3289966,,,,,False,False,BJ
2021-06-08,BMU,NA,Bermuda,32.320236,-64.774022,155372599,3289966,,,,,False,False,BM
2021-06-08,BTN,AS,Bhutan,27.515709,90.442455,155372599,3289966,,,,,False,False,BT
2021-05-30,BOL,SA,Bolivia,-16.28835,-63.549429,165305912,3434316,0,161871596,0,0,False,False,BO
2021-05-30,BES,NA,"Bonaire, Saint Eustatius and Saba",12.160842,-68.304383,165305912,3434316,0,161871596,0,0,False,False,BQ
2021-06-08,BIH,EU,Bosnia and Herzegovina,43.892652,17.670584,204455,9460,176703,18292,,,False,False,BA
2021-06-08,BWA,AF,Botswana,-22.344029,24.680158,155372599,3289966,,,,,False,False,BW
2021-06-08,BRA,SA,Brazil,-14.242915,-53.189267,155372599,3289966,,,,,False,False,BR
2021-06-08,VGB,NA,British Virgin Islands,18.573601,-64.492065,155372599,3289966,,,,,False,False,VG
2021-05-30,BRN,AS,Brunei,4.525125,114.715443,165305912,3434316,0,161871596,0,0,False,False,BN
2021-06-09,BGR,EU,Bulgaria,42.729862,25.491667,419859,17860,387416,14583,,,True,True,BG
2021-06-08,BFA,AF,Burkina Faso,12.24185,-1.55676,155372599,3289966,,,,,False,False,BF
2021-06-08,BDI,AF,Burundi,-3.387918,29.920395,155372599,3289966,,,,,False,False,BI
2021-06-08,CPV,AF,Cabo Verde,16.0026,-24.014095,155372599,3289966,,,,,False,False,CV
2021-06-08,KHM,AS,Cambodia,12.54775,104.98386,155372599,3289966,,,,,False,False,KH
2021-06-08,CMR,AF,Cameroon,7.365302,12.343439,155372599,3289966,,,,,False,False,CM
2021-06-08,CAN,NA,Canada,62.393303,-96.818145,155372599,3289966,,,,,False,False,CA
2021-06-08,CYM,NA,Cayman Islands,19.512365,-80.580025,155372599,3289966,,,,,False,False,KY
2021-06-08,CAF,AF,Central African Republic,6.614041,20.941759,155372599,3289966,,,,,False,False,CF
2021-06-08,TCD,AF,Chad,15.445718,18.738068,155372599,3289966,,,,,False,False,TD
2021-06-08,CHL,SA,Chile,-36.711951,-73.601704,155372599,3289966,,,,,False,False,CL
2021-06-08,CHN,AS,China,34.668138,104.165802,155372599,3289966,,,,,False,False,CN
2021-06-08,COL,SA,Colombia,4.577317,-74.298973,155372599,3289966,,,,,False,False,CO
2021-06-08,COM,AF,Comoros,-11.875119,43.877007,155372599,3289966,,,,,False,False,KM
2021-05-30,COD,AF,"Congo, Democratic Republic of the",-4.034788,21.755028,165305912,3434316,0,161871596,0,0,False,False,CD
2021-05-30,COG,AF,"Congo, Rep. Of",-0.662071,14.927424,165305912,3434316,0,161871596,0,0,False,False,CG
2021-06-08,COK,OC,Cook Islands,-15.983639,-159.202896,155372599,3289966,,,,,False,False,
2021-06-08,CRI,NA,Costa Rica,9.624897,-84.253308,155372599,3289966,,,,,False,False,CR
2021-05-30,CIV,AF,Cote d'Ivoire,7.546855,-5.547099,165305912,3434316,0,161871596,0,0,False,False,CI
2021-06-07,HRV,EU,Croatia,44.48732,16.460306,357608,8091,348274,1243,,,True,True,HR
2021-06-08,CUB,NA,Cuba,21.527062,-79.544601,155372599,3289966,,,,,False,False,CU
2021-06-08,CUW,NA,Curaçao,12.209208,-68.945576,155372599,3289966,,,,,False,False,CW
2021-06-07,CYP,EU,Cyprus,35.167406,33.435499,72919,435,68782,3702,1681,,True,True,CY
2021-06-08,CZE,EU,Czech Republic,49.800901,15.478153,1664382,30202,1627151,7029,,,True,True,CZ
2021-06-08,DNK,EU,Denmark,56.155403,11.617223,287325,2520,273241,11564,124,0,True,True,DK
2021-06-08,DJI,AF,Djibouti,11.808375,42.595222,155372599,3289966,,,,,False,False,DJ
2021-06-08,DMA,NA,Dominica,15.416749,-61.36413,155372599,3289966,,,,,False,False,DM
2021-06-08,DOM,NA,Dominican Republic,18.736509,-70.161744,155372599,3289966,,,,,False,False,DO
2021-05-30,TLS,OC,East Timor,-8.79973,125.677345,165305912,3434316,0,161871596,0,0,False,False,TL
2021-06-08,ECU,SA,Ecuador,-1.779901,-78.131592,155372599,3289966,,,,,False,False,EC
2021-06-08,EGY,AF,Egypt,26.696362,30.246486,155372599,3289966,,,,,False,False,EG
2021-06-08,SLV,NA,El Salvador,13.796873,-88.910412,155372599,3289966,,,,,False,False,SV
2021-06-08,GNQ,AF,Equatorial Guinea,1.633925,10.341295,155372599,3289966,,,,,False,False,GQ
2021-06-08,ERI,AF,Eritrea,15.18132,39.786709,155372599,3289966,,,,,False,False,ER
2021-06-09,EST,EU,Estonia,58.596209,25.023778,130310,1265,,,,,True,True,EE
2021-06-08,ETH,AF,Ethiopia,9.148086,40.493059,155372599,3289966,,,,,False,False,ET
2021-05-30,FRO,EU,Faeroe Islands,61.897846,-6.928791,165305912,3434316,0,161871596,0,0,False,False,
2021-06-08,FLK,SA,Falkland Islands (Malvinas),-51.800581,-59.528839,155372599,3289966,,,,,False,False,FK
2021-06-08,FJI,OC,Fiji,-16.578041,178.416339,155372599,3289966,,,,,False,False,FJ
2021-06-09,FIN,EU,Finland,64.952416,26.068944,93522,846,0,92676,,,True,True,FI
2021-05-23,FRA,EU,France,46.232193,2.209667,5980325,82234,364695,5533396,19720,3515,True,True,FR
2021-06-08,GUF,SA,French Guiana,3.951795,-53.07823,155372599,3289966,,,,,False,False,
2021-06-08,PYF,OC,French Polynesia,-17.778572,-143.903496,155372599,3289966,,,,,False,False,PF
2021-06-08,GAB,AF,Gabon,-0.828097,11.598909,155372599,3289966,,,,,False,False,GA
2021-06-08,GMB,AF,Gambia,13.445411,-15.311436,155372599,3289966,,,,,False,False,GM
2021-06-08,GEO,AS,Georgia,42.319847,43.368055,155372599,3289966,,,,,False,False,GE
2021-06-09,DEU,EU,Germany,51.165706,10.452764,3705944,89491,3557600,58853,,,True,True,DE
2021-06-08,GHA,AF,Ghana,7.955012,-1.03182,155372599,3289966,,,,,False,False,GH
2021-06-08,GIB,EU,Gibraltar,36.132235,-5.352273,155372599,3289966,,,,,False,False,GI
2021-06-08,GRC,EU,Greece,38.275283,23.810343,155372599,3289966,,,,,True,True,EL
2021-06-08,GRL,NA,Greenland,71.702379,-42.177174,155372599,3289966,,,,,False,False,
2021-06-08,GRD,NA,Grenada,12.152588,-61.689557,155372599,3289966,,,,,False,False,GD
2021-06-08,GLP,NA,Guadeloupe,16.192207,-61.272382,155372599,3289966,,,,,False,False,
2021-06-08,GUM,OC,Guam,13.446472,144.786613,155372599,3289966,,,,,False,False,GU
2021-06-08,GTM,NA,Guatemala,15.776261,-90.229744,155372599,3289966,,,,,False,False,GT
2021-06-08,GGY,EU,Guernsey,49.575693,-2.42318,155372599,3289966,,,,,False,False,GG
2021-06-08,GIN,AF,Guinea,9.934887,-11.283845,155372599,3289966,,,,,False,False,GN
2021-05-30,GNB,AF,Guinea Bissau,11.802527,-15.177029,165305912,3434316,0,161871596,0,0,False,False,GW
2021-06-08,GUY,SA,Guyana,4.866324,-58.932507,155372599,3289966,,,,,False,False,GY
2021-06-08,HTI,NA,Haiti,19.054426,-73.045971,155372599,3289966,,,,,False,False,HT
2021-06-08,VAT,EU,Holy See,41.903859,12.452041,155372599,3289966,,,,,False,False,
2021-06-08,HND,NA,Honduras,14.746333,-86.253097,155372599,3289966,,,,,False,False,HN
2021-06-09,HUN,EU,Hungary,47.164638,19.508944,806385,29889,720400,56096,549,58,True,True,HU
2021-06-08,ISL,EU,Iceland,64.963942,-19.021169,155372599,3289966,,,,,False,True,IS
2021-06-08,IND,AS,India,21.125681,82.794998,155372599,3289966,,,,,False,False,IN
2021-06-08,IDN,AS,Indonesia,-2.518722,118.015568,155372599,3289966,,,,,False,False,ID
2021-05-30,IRN,AS,Iran,32.420653,53.682375,165305912,3434316,0,161871596,0,0,False,False,IR
2021-06-08,IRQ,AS,Iraq,33.223737,43.685901,155372599,3289966,,,,,False,False,IQ
2021-06-08,IRL,EU,Ireland,53.41975,-8.240472,265114,4941,,,14430,1543,True,True,IE
2021-06-08,IMN,EU,Isle of Man,54.23782,-4.555111,155372599,3289966,,,,,False,False,IM
2021-06-08,ISR,AS,Israel,31.418388,35.073541,155372599,3289966,,,,,False,False,IL
2021-06-08,ITA,EU,Italy,41.873987,12.564167,4235592,126690,3927176,181726,5373,688,True,True,IT
2021-06-08,JAM,NA,Jamaica,18.115265,-77.27348,155372599,3289966,,,,,False,False,JM
2021-06-08,JPN,AS,Japan,34.886306,134.379711,155372599,3289966,,,,,False,False,JP
2021-06-08,JEY,EU,Jersey,49.217445,-2.141056,155372599,3289966,,,,,False,False,JE
2021-06-08,JOR,AS,Jordan,31.276778,37.130583,155372599,3289966,,,,,False,False,JO
2021-06-08,KAZ,AS,Kazakhstan,48.193764,66.902264,155372599,3289966,,,,,False,False,KZ
2021-06-08,KEN,AF,Kenya,0.170945,37.903969,155372599,3289966,,,,,False,False,KE
2021-06-08,KIR,OC,Kiribati,-3.358734,9.670395,155372599,3289966,,,,,False,False,
2021-05-30,XKX,EU,Kosovo,41.85637,21.803351,165305912,3434316,0,161871596,0,0,False,False,XK
2021-06-08,KWT,AS,Kuwait,29.310278,47.493515,155372599,3289966,,,,,False,False,KW
2021-06-08,KGZ,AS,Kyrgyzstan,41.205528,74.779888,155372599,3289966,,,,,False,False,KG
2021-05-30,LAO,AS,Laos,18.205208,103.895043,165305912,3434316,0,161871596,0,0,False,False,LA
2021-06-09,LVA,EU,Latvia,56.875584,24.607722,135388,2428,,,,,True,True,LV
2021-06-08,LBN,AS,Lebanon,33.872639,35.876736,155372599,3289966,,,,,False,False,LB
2021-06-08,LSO,AF,Lesotho,-29.620511,28.247414,155372599,3289966,,,,,False,False,LS
2021-06-08,LBR,AF,Liberia,6.452424,-9.428598,155372599,3289966,,,,,False,False,LR
2021-06-08,LBY,AF,Libya,26.338522,17.268816,155372599,3289966,,,,,False,False,LY
2021-06-08,LIE,EU,Liechtenstein,47.164696,9.555,155372599,3289966,,,,,False,False,LI
2021-06-08,LTU,EU,Lithuania,55.174112,23.906736,277002,4320,261391,11291,,,True,True,LT
2021-06-07,LUX,EU,Luxembourg,49.815764,6.131514,70291,818,,,,,True,True,LU
2021-06-08,MDG,AF,Madagascar,-18.777192,46.854328,155372599,3289966,,,,,False,False,MG
2021-06-08,MWI,AF,Malawi,-13.24627,34.295385,155372599,3289966,,,,,False,False,MW
2021-06-08,MYS,AS,Malaysia,4.109319,109.455475,155372599,3289966,,,,,False,False,MY
2021-06-08,MDV,AS,Maldives,3.202833,73.165249,155372599,3289966,,,,,False,False,MV
2021-06-08,MLI,AF,Mali,17.579757,-3.998823,155372599,3289966,,,,,False,False,ML
2021-06-08,MLT,EU,Malta,35.946151,14.384612,30572,419,30083,70,,,True,True,MT
2021-06-08,MHL,OC,Marshall Islands,10.10382,168.728363,155372599,3289966,,,,,False,False,
2021-06-08,MTQ,NA,Martinique,14.635541,-61.022814,155372599,3289966,,,,,False,False,
2021-06-08,MRT,AF,Mauritania,21.00681,-10.947098,155372599,3289966,,,,,False,False,MR
2021-06-08,MUS,AF,Mauritius,-15.422486,60.006449,155372599,3289966,,,,,False,False,MU
2021-06-08,MYT,AF,Mayotte,-12.824511,45.165455,155372599,3289966,,,,,False,False,
2021-06-08,MEX,NA,Mexico,23.624813,-102.57867,155372599,3289966,,,,,False,False,MX
2021-05-26,MDA,EU,Moldova,46.979527,28.377195,254908,6088,254908,-6088,,,False,False,MD
2021-06-08,MCO,EU,Monaco,43.738348,7.424451,155372599,3289966,,,,,False,False,MC
2021-06-08,MNG,AS,Mongolia,46.860945,103.836986,155372599,3289966,,,,,False,False,MN
2021-06-08,MNE,EU,Montenegro,42.710152,19.410069,99848,1596,,,67,,False,True,ME
2021-06-08,MSR,NA,Montserrat,16.749415,-62.192741,155372599,3289966,,,,,False,False,MS
2021-06-08,MAR,AF,Morocco,31.792306,-7.080168,155372599,3289966,,,,,False,False,MA
2021-06-08,MOZ,AF,Mozambique,-18.670284,35.530157,155372599,3289966,,,,,False,False,MZ
2021-05-30,MMR,AS,"Myanmar, Union of",19.163916,96.68303,165305912,3434316,0,161871596,0,0,False,False,MM
2021-06-08,NAM,AF,Namibia,-22.965662,18.486165,155372599,3289966,,,,,False,False,NA
2021-06-08,NRU,OC,Nauru,-0.52832,166.922157,155372599,3289966,,,,,False,False,NR
2021-06-08,NPL,AS,Nepal,28.395056,84.127803,155372599,3289966,,,,,False,False,NP
2021-06-08,NLD,EU,Netherlands,52.133057,5.29525,1665846,23833,0,1642013,42497,0,True,True,NL
2021-06-08,NCL,OC,New Caledonia,-21.123889,165.846901,155372599,3289966,,,,,False,False,NC
2021-06-08,NZL,OC,New Zealand,-40.9006,174.886,155372599,3289966,,,,,False,False,NZ
2021-06-08,NIC,NA,Nicaragua,12.866726,-85.214298,155372599,3289966,,,,,False,False,NI
2021-06-08,NER,AF,Niger,17.611,8.080946,155372599,3289966,,,,,False,False,NE
2021-06-08,NGA,AF,Nigeria,9.084575,8.674252,155372599,3289966,,,,,False,False,NG
2021-06-08,NIU,OC,Niue,-19.051631,-169.86309,155372599,3289966,,,,,False,False,
2021-06-08,MKD,EU,North Macedonia,41.611,21.751417,155372599,3289966,,,,,False,True,MK
2021-05-30,MNP,OC,Northern Mariana Islands,17.331835,145.47577,165305912,3434316,0,161871596,0,0,False,False,MP
2021-06-08,NOR,EU,Norway,64.583013,17.86411,124791,785,0,124006,4545,870,False,True,NO
2021-06-08,OMN,AS,Oman,21.516861,55.859291,155372599,3289966,,,,,False,False,OM
2021-06-08,PAK,AS,Pakistan,30.441861,69.359766,155372599,3289966,,,,,False,False,PK
2021-06-08,PLW,OC,Palau,5.63663,132.920475,155372599,3289966,,,,,False,False,PW
2021-05-30,PSE,AS,Palestine,31.881464,34.894978,165305912,3434316,0,161871596,0,0,False,False,PS
2021-06-08,PAN,NA,Panama,8.41771,-80.112777,155372599,3289966,,,,,False,False,PA
2021-06-08,PNG,OC,Papua New Guinea,-6.48825,148.403152,155372599,3289966,,,,,False,False,PG
2021-06-08,PRY,SA,Paraguay,-23.451389,-58.453215,155372599,3289966,,,,,False,False,PY
2021-06-08,PER,SA,Peru,-9.181352,-75.002365,155372599,3289966,,,,,False,False,PE
2021-06-08,PHL,AS,Philippines,12.881958,121.76654,155372599,3289966,,,,,False,False,PH
2021-06-09,POL,EU,Poland,51.92275,19.136875,2876289,74363,2646647,155279,,,True,True,PL
2021-06-08,PRT,EU,Portugal,39.553444,-7.839319,853653,17037,812964,23652,296,66,True,True,PT
2021-06-08,PRI,NA,Puerto Rico,18.223285,-66.592731,155372599,3289966,,,,,False,False,PR
2021-06-08,QAT,AS,Qatar,25.318833,51.19693,155372599,3289966,,,,,False,False,QA
2021-06-08,REU,AF,Réunion,-21.114533,55.532062,155372599,3289966,,,,,False,False,
2021-06-08,ROU,EU,Romania,45.947125,24.980514,1078674,31155,,,,,True,True,RO
2021-06-08,RUS,EU,Russian Fed.,61.523111,-74.9,5145843,126612,4752085,267146,0,0,False,False,RU
2021-06-08,RWA,AF,Rwanda,-1.94708,29.876376,155372599,3289966,,,,,False,False,RW
2021-06-08,SHN,AF,Saint Helena,-11.953679,-10.029991,155372599,3289966,,,,,False,False,
2021-06-08,KNA,NA,Saint Kitts and Nevis,17.257731,-62.706413,155372599,3289966,,,,,False,False,KN
2021-06-08,LCA,NA,Saint Lucia,13.904011,-60.974176,155372599,3289966,,,,,False,False,LC
2021-06-08,SPM,NA,Saint Pierre and Miquelon,46.966164,-56.336825,155372599,3289966,,,,,False,False,
2021-06-08,VCT,NA,Saint Vincent and the Grenadines,12.980909,-61.287392,155372599,3289966,,,,,False,False,VC
2021-05-30,BLM,NA,Saint-Barthélemy,17.903496,-62.831448,165305912,3434316,0,161871596,0,0,False,False,BL
2021-06-08,WSM,OC,Samoa,-13.736573,-172.10717,155372599,3289966,,,,,False,False,
2021-06-08,SMR,EU,San Marino,43.942973,12.460035,155372599,3289966,,,,,False,False,SM
2021-06-08,STP,AF,Sao Tome and Principe,0.863044,6.968272,155372599,3289966,,,,,False,False,ST
2021-06-08,SAU,AS,Saudi Arabia,23.886291,45.081139,155372599,3289966,,,,,False,False,SA
2021-06-08,SEN,AF,Senegal,14.499454,-14.445562,155372599,3289966,,,,,False,False,SN
2021-06-08,SRB,EU,Serbia,44.206802,20.911009,155372599,3289966,,,,,False,True,RS
2021-06-08,SYC,AF,Seychelles,-7.018792,51.242138,155372599,3289966,,,,,False,False,SC
2021-06-08,SLE,AF,Sierra Leone,8.464806,-11.795935,155372599,3289966,,,,,False,False,SL
2021-06-08,SGP,AS,Singapore,1.364917,103.822872,155372599,3289966,,,,,False,False,SG
2021-05-30,SXM,NA,Sint Maarten (Dutch part),18.04097,-63.078516,165305912,3434316,0,161871596,0,0,False,False,SX
2021-06-09,SVK,EU,Slovakia,48.665639,19.709097,390693,12430,,,239,23,True,True,SK
2021-06-08,SVN,EU,Slovenia,46.145528,14.974541,255907,4709,14270,236928,188,47,True,True,SI
2021-06-08,SLB,OC,Solomon Islands,-9.220083,161.244735,155372599,3289966,,,,,False,False,SB
2021-06-08,SOM,AF,Somalia,5.152149,46.199616,155372599,3289966,,,,,False,False,SO
2021-06-08,ZAF,AF,South Africa,-28.48322,24.676997,155372599,3289966,,,,,False,False,ZA
2021-05-30,KOR,AS,South Korea,35.901696,127.735889,165305912,3434316,0,161871596,0,0,False,False,KR
2021-06-08,SSD,AF,South Sudan,7.856272,30.040413,155372599,3289966,,,,,False,False,SS
2021-06-08,ESP,EU,Spain,39.896027,-2.487694,3711027,80309,,,3880,1088,True,True,ES
2021-06-08,LKA,AS,Sri Lanka,7.874097,80.767098,155372599,3289966,,,,,False,False,LK
2021-06-08,SDN,AF,Sudan,15.45847,30.217636,155372599,3289966,,,,,False,False,SD
2021-06-08,SUR,SA,Suriname,3.917846,-56.032028,155372599,3289966,,,,,False,False,SR
2021-06-07,SWE,EU,Sweden,62.199806,17.637493,1080733,14546,,,,7522,True,True,SE
2021-06-09,CHE,EU,Switzerland,46.815514,8.224472,691476,10891,96795,583790,387,104,False,False,CH
2021-06-08,SYR,AS,Syrian Arab Republic,34.814902,39.056126,155372599,3289966,,,,,False,False,SY
2021-05-30,TWN,AS,Taiwan,21.901806,121.471,165305912,3434316,0,161871596,0,0,False,False,TW
2021-06-08,TJK,AS,Tajikistan,38.858194,71.26218,155372599,3289966,,,,,False,False,TJ
2021-05-30,TZA,AF,Tanzania,-6.368216,34.885195,165305912,3434316,0,161871596,0,0,False,False,TZ
2021-06-08,THA,AS,Thailand,13.036597,101.492515,155372599,3289966,,,,,False,False,TH
2021-06-08,TGO,AF,Togo,8.621697,0.829685,155372599,3289966,,,,,False,False,TG
2021-06-08,TKL,OC,Tokelau,-8.967362,-171.855881,155372599,3289966,,,,,False,False,
2021-06-08,TON,OC,Tonga,-18.509023,-174.794922,155372599,3289966,,,,,False,False,
2021-06-08,TTO,NA,Trinidad and Tobago,10.687223,-61.220852,155372599,3289966,,,,,False,False,TT
2021-06-08,TUN,AF,Tunisia,33.892166,9.561556,155372599,3289966,,,,,False,False,TN
2021-06-08,TUR,AS,Turkey,38.961516,35.25175,5300236,48341,5173186,78709,,,False,True,TR
2021-06-08,TKM,AS,Turkmenistan,38.968319,59.562873,155372599,3289966,,,,,False,False,TM
2021-06-08,TCA,NA,Turks and Caicos Islands,21.692252,-71.803756,155372599,3289966,,,,,False,False,TC
2021-06-08,TUV,OC,Tuvalu,-8.221571,177.964073,155372599,3289966,,,,,False,False,TV
2021-06-08,UGA,AF,Uganda,1.365188,32.304651,155372599,3289966,,,,,False,False,UG
2021-06-09,UKR,EU,Ukraine,48.379888,31.168139,2218039,51410,2108684,57945,,,False,False,UA
2021-06-08,ARE,AS,United Arab Emirates,24.358745,53.982494,155372599,3289966,,,,,False,False,AE
2021-06-08,GBR,EU,United Kingdom,54.633221,-3.432277,4528452,127854,0,4400598,,,False,True,UK
2021-06-08,USA,NA,United States of America,36.966428,-95.844032,155372599,3289966,,,,,False,False,US
2021-06-08,VIR,NA,United States Virgin Islands,18.036736,-64.801704,155372599,3289966,,,,,False,False,VI
2021-06-08,URY,SA,Uruguay,-32.53152,-55.758328,155372599,3289966,,,,,False,False,UY
2021-06-08,UZB,AS,Uzbekistan,41.379722,64.564459,155372599,3289966,,,,,False,False,UZ
2021-06-08,VUT,OC,Vanuatu,-16.661195,168.214882,155372599,3289966,,,,,False,False,VU
2021-05-30,VEN,SA,Venezuela,6.414107,-66.578926,165305912,3434316,0,161871596,0,0,False,False,VE
2021-05-30,VNM,AS,Vietnam,15.974222,105.806431,165305912,3434316,0,161871596,0,0,False,False,VN
2021-05-30,ESH,AF,Western Sahara,24.221916,-12.886729,165305912,3434316,0,161871596,0,0,False,False,EH
2021-05-30,WWW,WW,Whole Globe,0,0,165305912,3434316,0,161871596,0,0,False,False,
2021-06-08,YEM,AS,Yemen,15.555545,48.531539,155372599,3289966,,,,,False,False,YE
2021-06-08,ZMB,AF,Zambia,-13.151917,27.852537,155372599,3289966,,,,,False,False,ZM
2021-06-08,ZWE,AF,Zimbabwe,-19.013286,29.146667,155372599,3289966,,,,,False,False,ZW
