Date,iso3,Continent,CountryName,lat,lon,CumulativePositive,CumulativeDeceased,CumulativeRecovered,CurrentlyPositive,Hospitalized,IntensiveCare,EUcountry,EUCPMcountry,NUTS
2021-09-20,AFG,AS,Afghanistan,33.930445,67.678945,202842665,4127275,,,,,False,False,AF
2021-09-19,ALB,EU,Albania,41.156986,20.181222,162953,2580,147584,12789,205,19,False,False,AL
2021-09-20,DZA,AF,Algeria,28.026875,1.65284,202842665,4127275,,,,,False,False,DZ
2021-09-20,ASM,OC,American Samoa,-12.716089,-170.253983,202842665,4127275,,,,,False,False,
2021-09-17,AND,EU,Andorra,42.542268,1.596865,15124,130,,,0,,False,False,AD
2021-09-20,AGO,AF,Angola,-11.209451,17.880669,202842665,4127275,,,,,False,False,AO
2021-09-20,AIA,NA,Anguilla,18.225119,-63.07213,202842665,4127275,,,,,False,False,AI
2021-09-20,ATG,NA,Antigua and Barbuda,17.363183,-61.789423,202842665,4127275,,,,,False,False,AG
2021-09-20,ARG,SA,Argentina,-38.421295,-63.587403,202842665,4127275,,,,,False,False,AR
2021-09-20,ARM,AS,Armenia,40.066181,45.111108,202842665,4127275,,,,,False,False,AM
2021-09-20,ABW,NA,Aruba,12.517713,-69.965112,202842665,4127275,,,,,False,False,AW
2021-09-20,AUS,OC,Australia,-26.853388,133.275154,202842665,4127275,,,,,False,False,AU
2021-09-18,AUT,EU,Austria,47.697542,13.349319,720670,10671,678674,31325,649,211,True,True,AT
2021-09-20,AZE,AS,Azerbaijan,40.147396,47.572098,202842665,4127275,,,,,False,False,AZ
2021-09-20,BHS,NA,Bahamas,24.885993,-76.709892,202842665,4127275,,,,,False,False,BS
2021-09-20,BHR,AS,Bahrain,26.039722,50.559306,202842665,4127275,,,,,False,False,BH
2021-09-20,BGD,AS,Bangladesh,23.68764,90.351002,202842665,4127275,,,,,False,False,BD
2021-09-20,BRB,NA,Barbados,13.18355,-59.534649,202842665,4127275,,,,,False,False,BB
2021-09-19,BLR,EU,Belarus,53.711111,27.973847,516428,4004,,,,,False,False,BY
2021-09-17,BEL,EU,Belgium,50.499527,4.475402,1219814,25497,,,713,213,True,True,BE
2021-09-20,BLZ,NA,Belize,17.192929,-88.5009,202842665,4127275,,,,,False,False,BZ
2021-09-20,BEN,AF,Benin,9.322048,2.313138,202842665,4127275,,,,,False,False,BJ
2021-09-20,BMU,NA,Bermuda,32.320236,-64.774022,202842665,4127275,,,,,False,False,BM
2021-09-20,BTN,AS,Bhutan,27.515709,90.442455,202842665,4127275,,,,,False,False,BT
2021-09-12,BOL,SA,Bolivia,-16.28835,-63.549429,209254160,4366243,0,204887917,0,0,False,False,BO
2021-09-12,BES,NA,"Bonaire, Saint Eustatius and Saba",12.160842,-68.304383,209254160,4366243,0,204887917,0,0,False,False,BQ
2021-09-17,BIH,EU,Bosnia and Herzegovina,43.892652,17.670584,225857,10203,,,,,False,False,BA
2021-09-20,BWA,AF,Botswana,-22.344029,24.680158,202842665,4127275,,,,,False,False,BW
2021-09-20,BRA,SA,Brazil,-14.242915,-53.189267,202842665,4127275,,,,,False,False,BR
2021-09-20,VGB,NA,British Virgin Islands,18.573601,-64.492065,202842665,4127275,,,,,False,False,VG
2021-09-12,BRN,AS,Brunei,4.525125,114.715443,209254160,4366243,0,204887917,0,0,False,False,BN
2021-09-20,BGR,EU,Bulgaria,42.729862,25.491667,482186,20028,423424,38734,,,True,True,BG
2021-09-20,BFA,AF,Burkina Faso,12.24185,-1.55676,202842665,4127275,,,,,False,False,BF
2021-09-20,BDI,AF,Burundi,-3.387918,29.920395,202842665,4127275,,,,,False,False,BI
2021-09-20,CPV,AF,Cabo Verde,16.0026,-24.014095,202842665,4127275,,,,,False,False,CV
2021-09-20,KHM,AS,Cambodia,12.54775,104.98386,202842665,4127275,,,,,False,False,KH
2021-09-20,CMR,AF,Cameroon,7.365302,12.343439,202842665,4127275,,,,,False,False,CM
2021-09-20,CAN,NA,Canada,62.393303,-96.818145,202842665,4127275,,,,,False,False,CA
2021-09-20,CYM,NA,Cayman Islands,19.512365,-80.580025,202842665,4127275,,,,,False,False,KY
2021-09-20,CAF,AF,Central African Republic,6.614041,20.941759,202842665,4127275,,,,,False,False,CF
2021-09-20,TCD,AF,Chad,15.445718,18.738068,202842665,4127275,,,,,False,False,TD
2021-09-20,CHL,SA,Chile,-36.711951,-73.601704,202842665,4127275,,,,,False,False,CL
2021-09-20,CHN,AS,China,34.668138,104.165802,202842665,4127275,,,,,False,False,CN
2021-09-20,COL,SA,Colombia,4.577317,-74.298973,202842665,4127275,,,,,False,False,CO
2021-09-20,COM,AF,Comoros,-11.875119,43.877007,202842665,4127275,,,,,False,False,KM
2021-09-12,COD,AF,"Congo, Democratic Republic of the",-4.034788,21.755028,209254160,4366243,0,204887917,0,0,False,False,CD
2021-09-12,COG,AF,"Congo, Rep. Of",-0.662071,14.927424,209254160,4366243,0,204887917,0,0,False,False,CG
2021-09-20,COK,OC,Cook Islands,-15.983639,-159.202896,202842665,4127275,,,,,False,False,
2021-09-20,CRI,NA,Costa Rica,9.624897,-84.253308,202842665,4127275,,,,,False,False,CR
2021-09-12,CIV,AF,Cote d'Ivoire,7.546855,-5.547099,209254160,4366243,0,204887917,0,0,False,False,CI
2021-09-15,HRV,EU,Croatia,44.48732,16.460306,386891,8463,355542,22886,,,True,True,HR
2021-09-20,CUB,NA,Cuba,21.527062,-79.544601,202842665,4127275,,,,,False,False,CU
2021-09-20,CUW,NA,Curaçao,12.209208,-68.945576,202842665,4127275,,,,,False,False,CW
2021-09-18,CYP,EU,Cyprus,35.167406,33.435499,118957,630,114963,3364,2435,,True,True,CY
2021-09-19,CZE,EU,Czech Republic,49.800901,15.478153,1686364,30431,1650853,5080,,,True,True,CZ
2021-09-17,DNK,EU,Denmark,56.155403,11.617223,354068,2622,345411,6035,105,0,True,True,DK
2021-09-20,DJI,AF,Djibouti,11.808375,42.595222,202842665,4127275,,,,,False,False,DJ
2021-09-20,DMA,NA,Dominica,15.416749,-61.36413,202842665,4127275,,,,,False,False,DM
2021-09-20,DOM,NA,Dominican Republic,18.736509,-70.161744,202842665,4127275,,,,,False,False,DO
2021-09-12,TLS,OC,East Timor,-8.79973,125.677345,209254160,4366243,0,204887917,0,0,False,False,TL
2021-09-20,ECU,SA,Ecuador,-1.779901,-78.131592,202842665,4127275,,,,,False,False,EC
2021-09-20,EGY,AF,Egypt,26.696362,30.246486,202842665,4127275,,,,,False,False,EG
2021-09-20,SLV,NA,El Salvador,13.796873,-88.910412,202842665,4127275,,,,,False,False,SV
2021-09-20,GNQ,AF,Equatorial Guinea,1.633925,10.341295,202842665,4127275,,,,,False,False,GQ
2021-09-20,ERI,AF,Eritrea,15.18132,39.786709,202842665,4127275,,,,,False,False,ER
2021-09-20,EST,EU,Estonia,58.596209,25.023778,150142,,,,,,True,True,EE
2021-09-20,ETH,AF,Ethiopia,9.148086,40.493059,202842665,4127275,,,,,False,False,ET
2021-09-12,FRO,EU,Faeroe Islands,61.897846,-6.928791,209254160,4366243,0,204887917,0,0,False,False,
2021-09-20,FLK,SA,Falkland Islands (Malvinas),-51.800581,-59.528839,202842665,4127275,,,,,False,False,FK
2021-09-20,FJI,OC,Fiji,-16.578041,178.416339,202842665,4127275,,,,,False,False,FJ
2021-09-20,FIN,EU,Finland,64.952416,26.068944,136259,846,0,135413,,,True,True,FI
2021-08-12,FRA,EU,France,46.232193,2.209667,6216600,85963,397162,5733475,9465,1807,True,True,FR
2021-09-20,GUF,SA,French Guiana,3.951795,-53.07823,202842665,4127275,,,,,False,False,
2021-09-20,PYF,OC,French Polynesia,-17.778572,-143.903496,202842665,4127275,,,,,False,False,PF
2021-09-20,GAB,AF,Gabon,-0.828097,11.598909,202842665,4127275,,,,,False,False,GA
2021-09-20,GMB,AF,Gambia,13.445411,-15.311436,202842665,4127275,,,,,False,False,GM
2021-09-20,GEO,AS,Georgia,42.319847,43.368055,202842665,4127275,,,,,False,False,GE
2021-09-17,DEU,EU,Germany,51.165706,10.452764,4114858,92837,3873700,148321,,,True,True,DE
2021-09-20,GHA,AF,Ghana,7.955012,-1.03182,202842665,4127275,,,,,False,False,GH
2021-09-20,GIB,EU,Gibraltar,36.132235,-5.352273,202842665,4127275,,,,,False,False,GI
2021-09-20,GRC,EU,Greece,38.275283,23.810343,202842665,4127275,,,,,True,True,EL
2021-09-20,GRL,NA,Greenland,71.702379,-42.177174,202842665,4127275,,,,,False,False,
2021-09-20,GRD,NA,Grenada,12.152588,-61.689557,202842665,4127275,,,,,False,False,GD
2021-09-20,GLP,NA,Guadeloupe,16.192207,-61.272382,202842665,4127275,,,,,False,False,
2021-09-20,GUM,OC,Guam,13.446472,144.786613,202842665,4127275,,,,,False,False,GU
2021-09-20,GTM,NA,Guatemala,15.776261,-90.229744,202842665,4127275,,,,,False,False,GT
2021-09-20,GGY,EU,Guernsey,49.575693,-2.42318,202842665,4127275,,,,,False,False,GG
2021-09-20,GIN,AF,Guinea,9.934887,-11.283845,202842665,4127275,,,,,False,False,GN
2021-09-12,GNB,AF,Guinea Bissau,11.802527,-15.177029,209254160,4366243,0,204887917,0,0,False,False,GW
2021-09-20,GUY,SA,Guyana,4.866324,-58.932507,202842665,4127275,,,,,False,False,GY
2021-09-20,HTI,NA,Haiti,19.054426,-73.045971,202842665,4127275,,,,,False,False,HT
2021-09-20,VAT,EU,Holy See,41.903859,12.452041,202842665,4127275,,,,,False,False,
2021-09-20,HND,NA,Honduras,14.746333,-86.253097,202842665,4127275,,,,,False,False,HN
2021-09-20,HUN,EU,Hungary,47.164638,19.508944,818231,30136,780465,7630,380,45,True,True,HU
2021-09-20,ISL,EU,Iceland,64.963942,-19.021169,202842665,4127275,,,,,False,True,IS
2021-09-20,IND,AS,India,21.125681,82.794998,202842665,4127275,,,,,False,False,IN
2021-09-20,IDN,AS,Indonesia,-2.518722,118.015568,202842665,4127275,,,,,False,False,ID
2021-09-12,IRN,AS,Iran,32.420653,53.682375,209254160,4366243,0,204887917,0,0,False,False,IR
2021-09-20,IRQ,AS,Iraq,33.223737,43.685901,202842665,4127275,,,,,False,False,IQ
2021-09-19,IRL,EU,Ireland,53.41975,-8.240472,375367,5179,,,16188,1812,True,True,IE
2021-09-20,IMN,EU,Isle of Man,54.23782,-4.555111,202842665,4127275,,,,,False,False,IM
2021-09-20,ISR,AS,Israel,31.418388,35.073541,202842665,4127275,,,,,False,False,IL
2021-09-19,ITA,EU,Italy,41.873987,12.564167,4636111,130310,4392265,113536,4459,530,True,True,IT
2021-09-20,JAM,NA,Jamaica,18.115265,-77.27348,202842665,4127275,,,,,False,False,JM
2021-09-20,JPN,AS,Japan,34.886306,134.379711,202842665,4127275,,,,,False,False,JP
2021-09-20,JEY,EU,Jersey,49.217445,-2.141056,202842665,4127275,,,,,False,False,JE
2021-09-20,JOR,AS,Jordan,31.276778,37.130583,202842665,4127275,,,,,False,False,JO
2021-09-20,KAZ,AS,Kazakhstan,48.193764,66.902264,202842665,4127275,,,,,False,False,KZ
2021-09-20,KEN,AF,Kenya,0.170945,37.903969,202842665,4127275,,,,,False,False,KE
2021-09-20,KIR,OC,Kiribati,-3.358734,9.670395,202842665,4127275,,,,,False,False,
2021-09-12,XKX,EU,Kosovo,41.85637,21.803351,209254160,4366243,0,204887917,0,0,False,False,XK
2021-09-20,KWT,AS,Kuwait,29.310278,47.493515,202842665,4127275,,,,,False,False,KW
2021-09-20,KGZ,AS,Kyrgyzstan,41.205528,74.779888,202842665,4127275,,,,,False,False,KG
2021-09-12,LAO,AS,Laos,18.205208,103.895043,209254160,4366243,0,204887917,0,0,False,False,LA
2021-09-20,LVA,EU,Latvia,56.875584,24.607722,150749,2645,,,,,True,True,LV
2021-09-20,LBN,AS,Lebanon,33.872639,35.876736,202842665,4127275,,,,,False,False,LB
2021-09-20,LSO,AF,Lesotho,-29.620511,28.247414,202842665,4127275,,,,,False,False,LS
2021-09-20,LBR,AF,Liberia,6.452424,-9.428598,202842665,4127275,,,,,False,False,LR
2021-09-20,LBY,AF,Libya,26.338522,17.268816,202842665,4127275,,,,,False,False,LY
2021-09-20,LIE,EU,Liechtenstein,47.164696,9.555,202842665,4127275,,,,,False,False,LI
2021-09-19,LTU,EU,Lithuania,55.174112,23.906736,316695,4810,292673,19212,,,True,True,LT
2021-09-16,LUX,EU,Luxembourg,49.815764,6.131514,77189,834,,,,,True,True,LU
2021-09-20,MDG,AF,Madagascar,-18.777192,46.854328,202842665,4127275,,,,,False,False,MG
2021-09-20,MWI,AF,Malawi,-13.24627,34.295385,202842665,4127275,,,,,False,False,MW
2021-09-20,MYS,AS,Malaysia,4.109319,109.455475,202842665,4127275,,,,,False,False,MY
2021-09-20,MDV,AS,Maldives,3.202833,73.165249,202842665,4127275,,,,,False,False,MV
2021-09-20,MLI,AF,Mali,17.579757,-3.998823,202842665,4127275,,,,,False,False,ML
2021-09-20,MLT,EU,Malta,35.946151,14.384612,36994,455,35569,970,,,True,True,MT
2021-09-20,MHL,OC,Marshall Islands,10.10382,168.728363,202842665,4127275,,,,,False,False,
2021-09-20,MTQ,NA,Martinique,14.635541,-61.022814,202842665,4127275,,,,,False,False,
2021-09-20,MRT,AF,Mauritania,21.00681,-10.947098,202842665,4127275,,,,,False,False,MR
2021-09-20,MUS,AF,Mauritius,-15.422486,60.006449,202842665,4127275,,,,,False,False,MU
2021-09-20,MYT,AF,Mayotte,-12.824511,45.165455,202842665,4127275,,,,,False,False,
2021-09-20,MEX,NA,Mexico,23.624813,-102.57867,202842665,4127275,,,,,False,False,MX
2021-09-19,MDA,EU,Moldova,46.979527,28.377195,281700,6595,267372,7733,,,False,False,MD
2021-09-20,MCO,EU,Monaco,43.738348,7.424451,202842665,4127275,,,,,False,False,MC
2021-09-20,MNG,AS,Mongolia,46.860945,103.836986,202842665,4127275,,,,,False,False,MN
2021-09-19,MNE,EU,Montenegro,42.710152,19.410069,126259,1849,,,0,,False,True,ME
2021-09-20,MSR,NA,Montserrat,16.749415,-62.192741,202842665,4127275,,,,,False,False,MS
2021-09-20,MAR,AF,Morocco,31.792306,-7.080168,202842665,4127275,,,,,False,False,MA
2021-09-20,MOZ,AF,Mozambique,-18.670284,35.530157,202842665,4127275,,,,,False,False,MZ
2021-09-12,MMR,AS,"Myanmar, Union of",19.163916,96.68303,209254160,4366243,0,204887917,0,0,False,False,MM
2021-09-20,NAM,AF,Namibia,-22.965662,18.486165,202842665,4127275,,,,,False,False,NA
2021-09-20,NRU,OC,Nauru,-0.52832,166.922157,202842665,4127275,,,,,False,False,NR
2021-09-20,NPL,AS,Nepal,28.395056,84.127803,202842665,4127275,,,,,False,False,NP
2021-09-19,NLD,EU,Netherlands,52.133057,5.29525,1984915,24252,0,1960663,44502,0,True,True,NL
2021-09-20,NCL,OC,New Caledonia,-21.123889,165.846901,202842665,4127275,,,,,False,False,NC
2021-09-20,NZL,OC,New Zealand,-40.9006,174.886,202842665,4127275,,,,,False,False,NZ
2021-09-20,NIC,NA,Nicaragua,12.866726,-85.214298,202842665,4127275,,,,,False,False,NI
2021-09-20,NER,AF,Niger,17.611,8.080946,202842665,4127275,,,,,False,False,NE
2021-09-20,NGA,AF,Nigeria,9.084575,8.674252,202842665,4127275,,,,,False,False,NG
2021-09-20,NIU,OC,Niue,-19.051631,-169.86309,202842665,4127275,,,,,False,False,
2021-09-20,MKD,EU,North Macedonia,41.611,21.751417,202842665,4127275,,,,,False,True,MK
2021-09-12,MNP,OC,Northern Mariana Islands,17.331835,145.47577,209254160,4366243,0,204887917,0,0,False,False,MP
2021-09-17,NOR,EU,Norway,64.583013,17.86411,177021,841,0,176180,5076,964,False,True,NO
2021-09-20,OMN,AS,Oman,21.516861,55.859291,202842665,4127275,,,,,False,False,OM
2021-09-20,PAK,AS,Pakistan,30.441861,69.359766,202842665,4127275,,,,,False,False,PK
2021-09-20,PLW,OC,Palau,5.63663,132.920475,202842665,4127275,,,,,False,False,PW
2021-09-12,PSE,AS,Palestine,31.881464,34.894978,209254160,4366243,0,204887917,0,0,False,False,PS
2021-09-20,PAN,NA,Panama,8.41771,-80.112777,202842665,4127275,,,,,False,False,PA
2021-09-20,PNG,OC,Papua New Guinea,-6.48825,148.403152,202842665,4127275,,,,,False,False,PG
2021-09-20,PRY,SA,Paraguay,-23.451389,-58.453215,202842665,4127275,,,,,False,False,PY
2021-09-20,PER,SA,Peru,-9.181352,-75.002365,202842665,4127275,,,,,False,False,PE
2021-09-20,PHL,AS,Philippines,12.881958,121.76654,202842665,4127275,,,,,False,False,PH
2021-09-20,POL,EU,Poland,51.92275,19.136875,2898299,75488,2659912,162899,,,True,True,PL
2021-08-02,PRT,EU,Portugal,39.553444,-7.839319,1884554,34551,0,1850003,0,0,True,True,PT
2021-09-20,PRI,NA,Puerto Rico,18.223285,-66.592731,202842665,4127275,,,,,False,False,PR
2021-09-20,QAT,AS,Qatar,25.318833,51.19693,202842665,4127275,,,,,False,False,QA
2021-09-20,REU,AF,Réunion,-21.114533,55.532062,202842665,4127275,,,,,False,False,
2021-09-20,ROU,EU,Romania,45.947125,24.980514,1146628,35592,,,,,True,True,RO
2021-09-19,RUS,EU,Russian Fed.,61.523111,-74.9,7274928,200334,6498682,575912,0,0,False,False,RU
2021-09-20,RWA,AF,Rwanda,-1.94708,29.876376,202842665,4127275,,,,,False,False,RW
2021-09-20,SHN,AF,Saint Helena,-11.953679,-10.029991,202842665,4127275,,,,,False,False,
2021-09-20,KNA,NA,Saint Kitts and Nevis,17.257731,-62.706413,202842665,4127275,,,,,False,False,KN
2021-09-20,LCA,NA,Saint Lucia,13.904011,-60.974176,202842665,4127275,,,,,False,False,LC
2021-09-20,SPM,NA,Saint Pierre and Miquelon,46.966164,-56.336825,202842665,4127275,,,,,False,False,
2021-09-20,VCT,NA,Saint Vincent and the Grenadines,12.980909,-61.287392,202842665,4127275,,,,,False,False,VC
2021-09-12,BLM,NA,Saint-Barthélemy,17.903496,-62.831448,209254160,4366243,0,204887917,0,0,False,False,BL
2021-09-20,WSM,OC,Samoa,-13.736573,-172.10717,202842665,4127275,,,,,False,False,
2021-09-20,SMR,EU,San Marino,43.942973,12.460035,202842665,4127275,,,,,False,False,SM
2021-09-20,STP,AF,Sao Tome and Principe,0.863044,6.968272,202842665,4127275,,,,,False,False,ST
2021-09-20,SAU,AS,Saudi Arabia,23.886291,45.081139,202842665,4127275,,,,,False,False,SA
2021-09-20,SEN,AF,Senegal,14.499454,-14.445562,202842665,4127275,,,,,False,False,SN
2021-09-20,SRB,EU,Serbia,44.206802,20.911009,202842665,4127275,,,,,False,True,RS
2021-09-20,SYC,AF,Seychelles,-7.018792,51.242138,202842665,4127275,,,,,False,False,SC
2021-09-20,SLE,AF,Sierra Leone,8.464806,-11.795935,202842665,4127275,,,,,False,False,SL
2021-09-20,SGP,AS,Singapore,1.364917,103.822872,202842665,4127275,,,,,False,False,SG
2021-09-12,SXM,NA,Sint Maarten (Dutch part),18.04097,-63.078516,209254160,4366243,0,204887917,0,0,False,False,SX
2021-09-20,SVK,EU,Slovakia,48.665639,19.709097,402922,12573,,,282,30,True,True,SK
2021-09-09,SVN,EU,Slovenia,46.145528,14.974541,274526,4789,14908,254829,278,61,True,True,SI
2021-09-20,SLB,OC,Solomon Islands,-9.220083,161.244735,202842665,4127275,,,,,False,False,SB
2021-09-20,SOM,AF,Somalia,5.152149,46.199616,202842665,4127275,,,,,False,False,SO
2021-09-20,ZAF,AF,South Africa,-28.48322,24.676997,202842665,4127275,,,,,False,False,ZA
2021-09-12,KOR,AS,South Korea,35.901696,127.735889,209254160,4366243,0,204887917,0,0,False,False,KR
2021-09-20,SSD,AF,South Sudan,7.856272,30.040413,202842665,4127275,,,,,False,False,SS
2021-09-17,ESP,EU,Spain,39.896027,-2.487694,4929546,85783,,,3809,1028,True,True,ES
2021-09-20,LKA,AS,Sri Lanka,7.874097,80.767098,202842665,4127275,,,,,False,False,LK
2021-09-20,SDN,AF,Sudan,15.45847,30.217636,202842665,4127275,,,,,False,False,SD
2021-09-20,SUR,SA,Suriname,3.917846,-56.032028,202842665,4127275,,,,,False,False,SR
2021-09-16,SWE,EU,Sweden,62.199806,17.637493,1144982,14775,,,,7797,True,True,SE
2021-09-20,CHE,EU,Switzerland,46.815514,8.224472,816142,11168,121448,683526,754,227,False,False,CH
2021-09-20,SYR,AS,Syrian Arab Republic,34.814902,39.056126,202842665,4127275,,,,,False,False,SY
2021-09-12,TWN,AS,Taiwan,21.901806,121.471,209254160,4366243,0,204887917,0,0,False,False,TW
2021-09-20,TJK,AS,Tajikistan,38.858194,71.26218,202842665,4127275,,,,,False,False,TJ
2021-09-12,TZA,AF,Tanzania,-6.368216,34.885195,209254160,4366243,0,204887917,0,0,False,False,TZ
2021-09-20,THA,AS,Thailand,13.036597,101.492515,202842665,4127275,,,,,False,False,TH
2021-09-20,TGO,AF,Togo,8.621697,0.829685,202842665,4127275,,,,,False,False,TG
2021-09-20,TKL,OC,Tokelau,-8.967362,-171.855881,202842665,4127275,,,,,False,False,
2021-09-20,TON,OC,Tonga,-18.509023,-174.794922,202842665,4127275,,,,,False,False,
2021-09-20,TTO,NA,Trinidad and Tobago,10.687223,-61.220852,202842665,4127275,,,,,False,False,TT
2021-09-20,TUN,AF,Tunisia,33.892166,9.561556,202842665,4127275,,,,,False,False,TN
2021-08-03,TUR,AS,Turkey,38.961516,35.25175,5770833,51519,,,,,False,True,TR
2021-09-20,TKM,AS,Turkmenistan,38.968319,59.562873,202842665,4127275,,,,,False,False,TM
2021-09-20,TCA,NA,Turks and Caicos Islands,21.692252,-71.803756,202842665,4127275,,,,,False,False,TC
2021-09-20,TUV,OC,Tuvalu,-8.221571,177.964073,202842665,4127275,,,,,False,False,TV
2021-09-20,UGA,AF,Uganda,1.365188,32.304651,202842665,4127275,,,,,False,False,UG
2021-09-20,UKR,EU,Ukraine,48.379888,31.168139,2350646,54919,2231417,64310,,,False,False,UA
2021-09-20,ARE,AS,United Arab Emirates,24.358745,53.982494,202842665,4127275,,,,,False,False,AE
2021-09-15,GBR,EU,United Kingdom,54.633221,-3.432277,7312693,134647,0,7178046,,,False,True,UK
2021-09-20,USA,NA,United States of America,36.966428,-95.844032,202842665,4127275,,,,,False,False,US
2021-09-20,VIR,NA,United States Virgin Islands,18.036736,-64.801704,202842665,4127275,,,,,False,False,VI
2021-09-20,URY,SA,Uruguay,-32.53152,-55.758328,202842665,4127275,,,,,False,False,UY
2021-09-20,UZB,AS,Uzbekistan,41.379722,64.564459,202842665,4127275,,,,,False,False,UZ
2021-09-20,VUT,OC,Vanuatu,-16.661195,168.214882,202842665,4127275,,,,,False,False,VU
2021-09-12,VEN,SA,Venezuela,6.414107,-66.578926,209254160,4366243,0,204887917,0,0,False,False,VE
2021-09-12,VNM,AS,Vietnam,15.974222,105.806431,209254160,4366243,0,204887917,0,0,False,False,VN
2021-09-12,ESH,AF,Western Sahara,24.221916,-12.886729,209254160,4366243,0,204887917,0,0,False,False,EH
2021-09-12,WWW,WW,Whole Globe,0,0,209254160,4366243,0,204887917,0,0,False,False,
2021-09-20,YEM,AS,Yemen,15.555545,48.531539,202842665,4127275,,,,,False,False,YE
2021-09-20,ZMB,AF,Zambia,-13.151917,27.852537,202842665,4127275,,,,,False,False,ZM
2021-09-20,ZWE,AF,Zimbabwe,-19.013286,29.146667,202842665,4127275,,,,,False,False,ZW
