Date,iso3,CountryName,lat,lon,CumulativePositive,CumulativeDeceased,CumulativeRecovered,CurrentlyPositive,Hospitalized,IntensiveCare,EUcountry,EUCPMcountry,NUTS
2021-07-19,AFG,Afghanistan,33.930445,67.678945,170882061,3644458,,,,,False,False,AF
2021-07-18,ALB,Albania,41.156986,20.181222,132686,2456,130074,156,5,0,False,False,AL
2021-07-19,DZA,Algeria,28.026875,1.65284,170882061,3644458,,,,,False,False,DZ
2021-07-19,ASM,American Samoa,-12.716089,-170.253983,170882061,3644458,,,,,False,False,
2021-07-16,AND,Andorra,42.542268,1.596865,14273,127,,,4,,False,False,AD
2021-07-19,AGO,Angola,-11.209451,17.880669,170882061,3644458,,,,,False,False,AO
2021-07-19,AIA,Anguilla,18.225119,-63.07213,170882061,3644458,,,,,False,False,AI
2021-07-19,ATG,Antigua and Barbuda,17.363183,-61.789423,170882061,3644458,,,,,False,False,AG
2021-07-19,ARG,Argentina,-38.421295,-63.587403,170882061,3644458,,,,,False,False,AR
2021-07-19,ARM,Armenia,40.066181,45.111108,170882061,3644458,,,,,False,False,AM
2021-07-19,ABW,Aruba,12.517713,-69.965112,170882061,3644458,,,,,False,False,AW
2021-07-19,AUS,Australia,-26.853388,133.275154,170882061,3644458,,,,,False,False,AU
2021-07-17,AUT,Austria,47.697542,13.349319,649359,10521,633246,5592,78,36,True,True,AT
2021-07-19,AZE,Azerbaijan,40.147396,47.572098,170882061,3644458,,,,,False,False,AZ
2021-07-19,BHS,Bahamas,24.885993,-76.709892,170882061,3644458,,,,,False,False,BS
2021-07-19,BHR,Bahrain,26.039722,50.559306,170882061,3644458,,,,,False,False,BH
2021-07-19,BGD,Bangladesh,23.68764,90.351002,170882061,3644458,,,,,False,False,BD
2021-07-19,BRB,Barbados,13.18355,-59.534649,170882061,3644458,,,,,False,False,BB
2021-07-19,BLR,Belarus,53.711111,27.973847,435020,3334,,,,,False,False,BY
2021-07-16,BEL,Belgium,50.499527,4.475402,1103413,25209,,,239,81,True,True,BE
2021-07-19,BLZ,Belize,17.192929,-88.5009,170882061,3644458,,,,,False,False,BZ
2021-07-19,BEN,Benin,9.322048,2.313138,170882061,3644458,,,,,False,False,BJ
2021-07-19,BMU,Bermuda,32.320236,-64.774022,170882061,3644458,,,,,False,False,BM
2021-07-19,BTN,Bhutan,27.515709,90.442455,170882061,3644458,,,,,False,False,BT
2021-07-11,BOL,Bolivia,-16.28835,-63.549429,180478450,3890698,0,176587752,0,0,False,False,BO
2021-07-11,BES,"Bonaire, Saint Eustatius and Saba",12.160842,-68.304383,180478450,3890698,0,176587752,0,0,False,False,BQ
2021-07-15,BIH,Bosnia and Herzegovina,43.892652,17.670584,205267,9665,186872,8730,,,False,False,BA
2021-07-19,BWA,Botswana,-22.344029,24.680158,170882061,3644458,,,,,False,False,BW
2021-07-19,BRA,Brazil,-14.242915,-53.189267,170882061,3644458,,,,,False,False,BR
2021-07-19,VGB,British Virgin Islands,18.573601,-64.492065,170882061,3644458,,,,,False,False,VG
2021-07-11,BRN,Brunei,4.525125,114.715443,180478450,3890698,0,176587752,0,0,False,False,BN
2021-07-19,BGR,Bulgaria,42.729862,25.491667,422965,18174,397174,7617,,,True,True,BG
2021-07-19,BFA,Burkina Faso,12.24185,-1.55676,170882061,3644458,,,,,False,False,BF
2021-07-19,BDI,Burundi,-3.387918,29.920395,170882061,3644458,,,,,False,False,BI
2021-07-19,CPV,Cabo Verde,16.0026,-24.014095,170882061,3644458,,,,,False,False,CV
2021-07-19,KHM,Cambodia,12.54775,104.98386,170882061,3644458,,,,,False,False,KH
2021-07-19,CMR,Cameroon,7.365302,12.343439,170882061,3644458,,,,,False,False,CM
2021-07-19,CAN,Canada,62.393303,-96.818145,170882061,3644458,,,,,False,False,CA
2021-07-19,CYM,Cayman Islands,19.512365,-80.580025,170882061,3644458,,,,,False,False,KY
2021-07-19,CAF,Central African Republic,6.614041,20.941759,170882061,3644458,,,,,False,False,CF
2021-07-19,TCD,Chad,15.445718,18.738068,170882061,3644458,,,,,False,False,TD
2021-07-19,CHL,Chile,-36.711951,-73.601704,170882061,3644458,,,,,False,False,CL
2021-07-19,CHN,China,34.668138,104.165802,170882061,3644458,,,,,False,False,CN
2021-07-19,COL,Colombia,4.577317,-74.298973,170882061,3644458,,,,,False,False,CO
2021-07-19,COM,Comoros,-11.875119,43.877007,170882061,3644458,,,,,False,False,KM
2021-07-11,COD,"Congo, Democratic Republic of the",-4.034788,21.755028,180478450,3890698,0,176587752,0,0,False,False,CD
2021-07-11,COG,"Congo, Rep. Of",-0.662071,14.927424,180478450,3890698,0,176587752,0,0,False,False,CG
2021-07-19,COK,Cook Islands,-15.983639,-159.202896,170882061,3644458,,,,,False,False,
2021-07-19,CRI,Costa Rica,9.624897,-84.253308,170882061,3644458,,,,,False,False,CR
2021-07-11,CIV,Cote d'Ivoire,7.546855,-5.547099,180478450,3890698,0,176587752,0,0,False,False,CI
2021-07-18,HRV,Croatia,44.48732,16.460306,361595,8238,352613,744,,,True,True,HR
2021-07-19,CUB,Cuba,21.527062,-79.544601,170882061,3644458,,,,,False,False,CU
2021-07-19,CUW,Curaçao,12.209208,-68.945576,170882061,3644458,,,,,False,False,CW
2021-07-17,CYP,Cyprus,35.167406,33.435499,91196,462,73946,16788,1967,,True,True,CY
2021-07-18,CZE,Czech Republic,49.800901,15.478153,1671145,30338,1638053,2754,,,True,True,CZ
2021-07-19,DNK,Denmark,56.155403,11.617223,306944,2542,293230,11172,50,0,True,True,DK
2021-07-19,DJI,Djibouti,11.808375,42.595222,170882061,3644458,,,,,False,False,DJ
2021-07-19,DMA,Dominica,15.416749,-61.36413,170882061,3644458,,,,,False,False,DM
2021-07-19,DOM,Dominican Republic,18.736509,-70.161744,170882061,3644458,,,,,False,False,DO
2021-07-11,TLS,East Timor,-8.79973,125.677345,180478450,3890698,0,176587752,0,0,False,False,TL
2021-07-19,ECU,Ecuador,-1.779901,-78.131592,170882061,3644458,,,,,False,False,EC
2021-07-19,EGY,Egypt,26.696362,30.246486,170882061,3644458,,,,,False,False,EG
2021-07-19,SLV,El Salvador,13.796873,-88.910412,170882061,3644458,,,,,False,False,SV
2021-07-19,GNQ,Equatorial Guinea,1.633925,10.341295,170882061,3644458,,,,,False,False,GQ
2021-07-19,ERI,Eritrea,15.18132,39.786709,170882061,3644458,,,,,False,False,ER
2021-07-19,EST,Estonia,58.596209,25.023778,131882,,,,,,True,True,EE
2021-07-19,ETH,Ethiopia,9.148086,40.493059,170882061,3644458,,,,,False,False,ET
2021-07-11,FRO,Faeroe Islands,61.897846,-6.928791,180478450,3890698,0,176587752,0,0,False,False,
2021-07-19,FLK,Falkland Islands (Malvinas),-51.800581,-59.528839,170882061,3644458,,,,,False,False,FK
2021-07-19,FJI,Fiji,-16.578041,178.416339,170882061,3644458,,,,,False,False,FJ
2021-07-19,FIN,Finland,64.952416,26.068944,100314,846,0,99468,,,True,True,FI
2021-07-18,FRA,France,46.232193,2.209667,5737097,84967,387469,5264661,6936,891,True,True,FR
2021-07-19,GUF,French Guiana,3.951795,-53.07823,170882061,3644458,,,,,False,False,
2021-07-19,PYF,French Polynesia,-17.778572,-143.903496,170882061,3644458,,,,,False,False,PF
2021-07-19,GAB,Gabon,-0.828097,11.598909,170882061,3644458,,,,,False,False,GA
2021-07-19,GMB,Gambia,13.445411,-15.311436,170882061,3644458,,,,,False,False,GM
2021-07-19,GEO,Georgia,42.319847,43.368055,170882061,3644458,,,,,False,False,GE
2021-07-19,DEU,Germany,51.165706,10.452764,3745229,91363,3640100,13766,,,True,True,DE
2021-07-19,GHA,Ghana,7.955012,-1.03182,170882061,3644458,,,,,False,False,GH
2021-07-19,GIB,Gibraltar,36.132235,-5.352273,170882061,3644458,,,,,False,False,GI
2021-07-19,GRC,Greece,38.275283,23.810343,170882061,3644458,,,,,True,True,EL
2021-07-19,GRL,Greenland,71.702379,-42.177174,170882061,3644458,,,,,False,False,
2021-07-19,GRD,Grenada,12.152588,-61.689557,170882061,3644458,,,,,False,False,GD
2021-07-19,GLP,Guadeloupe,16.192207,-61.272382,170882061,3644458,,,,,False,False,
2021-07-19,GUM,Guam,13.446472,144.786613,170882061,3644458,,,,,False,False,GU
2021-07-19,GTM,Guatemala,15.776261,-90.229744,170882061,3644458,,,,,False,False,GT
2021-07-19,GGY,Guernsey,49.575693,-2.42318,170882061,3644458,,,,,False,False,GG
2021-07-19,GIN,Guinea,9.934887,-11.283845,170882061,3644458,,,,,False,False,GN
2021-07-11,GNB,Guinea Bissau,11.802527,-15.177029,180478450,3890698,0,176587752,0,0,False,False,GW
2021-07-19,GUY,Guyana,4.866324,-58.932507,170882061,3644458,,,,,False,False,GY
2021-07-19,HTI,Haiti,19.054426,-73.045971,170882061,3644458,,,,,False,False,HT
2021-07-19,VAT,Holy See,41.903859,12.452041,170882061,3644458,,,,,False,False,
2021-07-19,HND,Honduras,14.746333,-86.253097,170882061,3644458,,,,,False,False,HN
2021-07-13,HUN,Hungary,47.164638,19.508944,808556,30010,741663,36883,86,12,True,True,HU
2021-07-19,ISL,Iceland,64.963942,-19.021169,170882061,3644458,,,,,False,True,IS
2021-07-19,IND,India,21.125681,82.794998,170882061,3644458,,,,,False,False,IN
2021-07-19,IDN,Indonesia,-2.518722,118.015568,170882061,3644458,,,,,False,False,ID
2021-07-11,IRN,Iran,32.420653,53.682375,180478450,3890698,0,176587752,0,0,False,False,IR
2021-07-19,IRQ,Iraq,33.223737,43.685901,170882061,3644458,,,,,False,False,IQ
2021-07-18,IRL,Ireland,53.41975,-8.240472,284510,5018,,,14430,1543,True,True,IE
2021-07-19,IMN,Isle of Man,54.23782,-4.555111,170882061,3644458,,,,,False,False,IM
2021-07-19,ISR,Israel,31.418388,35.073541,170882061,3644458,,,,,False,False,IL
2021-07-18,ITA,Italy,41.873987,12.564167,4287458,127867,4113478,46113,1292,156,True,True,IT
2021-07-19,JAM,Jamaica,18.115265,-77.27348,170882061,3644458,,,,,False,False,JM
2021-07-19,JPN,Japan,34.886306,134.379711,170882061,3644458,,,,,False,False,JP
2021-07-19,JEY,Jersey,49.217445,-2.141056,170882061,3644458,,,,,False,False,JE
2021-07-19,JOR,Jordan,31.276778,37.130583,170882061,3644458,,,,,False,False,JO
2021-07-19,KAZ,Kazakhstan,48.193764,66.902264,170882061,3644458,,,,,False,False,KZ
2021-07-19,KEN,Kenya,0.170945,37.903969,170882061,3644458,,,,,False,False,KE
2021-07-19,KIR,Kiribati,-3.358734,9.670395,170882061,3644458,,,,,False,False,
2021-07-11,XKX,Kosovo,41.85637,21.803351,180478450,3890698,0,176587752,0,0,False,False,XK
2021-07-19,KWT,Kuwait,29.310278,47.493515,170882061,3644458,,,,,False,False,KW
2021-07-19,KGZ,Kyrgyzstan,41.205528,74.779888,170882061,3644458,,,,,False,False,KG
2021-07-11,LAO,Laos,18.205208,103.895043,180478450,3890698,0,176587752,0,0,False,False,LA
2021-07-19,LVA,Latvia,56.875584,24.607722,138184,2543,,,,,True,True,LV
2021-07-19,LBN,Lebanon,33.872639,35.876736,170882061,3644458,,,,,False,False,LB
2021-07-19,LSO,Lesotho,-29.620511,28.247414,170882061,3644458,,,,,False,False,LS
2021-07-19,LBR,Liberia,6.452424,-9.428598,170882061,3644458,,,,,False,False,LR
2021-07-19,LBY,Libya,26.338522,17.268816,170882061,3644458,,,,,False,False,LY
2021-07-19,LIE,Liechtenstein,47.164696,9.555,170882061,3644458,,,,,False,False,LI
2021-07-18,LTU,Lithuania,55.174112,23.906736,279813,4404,268329,7080,,,True,True,LT
2021-07-15,LUX,Luxembourg,49.815764,6.131514,72759,820,,,,,True,True,LU
2021-07-19,MDG,Madagascar,-18.777192,46.854328,170882061,3644458,,,,,False,False,MG
2021-07-19,MWI,Malawi,-13.24627,34.295385,170882061,3644458,,,,,False,False,MW
2021-07-19,MYS,Malaysia,4.109319,109.455475,170882061,3644458,,,,,False,False,MY
2021-07-19,MDV,Maldives,3.202833,73.165249,170882061,3644458,,,,,False,False,MV
2021-07-19,MLI,Mali,17.579757,-3.998823,170882061,3644458,,,,,False,False,ML
2021-07-19,MLT,Malta,35.946151,14.384612,32616,420,30233,1963,,,True,True,MT
2021-07-19,MHL,Marshall Islands,10.10382,168.728363,170882061,3644458,,,,,False,False,
2021-07-19,MTQ,Martinique,14.635541,-61.022814,170882061,3644458,,,,,False,False,
2021-07-19,MRT,Mauritania,21.00681,-10.947098,170882061,3644458,,,,,False,False,MR
2021-07-19,MUS,Mauritius,-15.422486,60.006449,170882061,3644458,,,,,False,False,MU
2021-07-19,MYT,Mayotte,-12.824511,45.165455,170882061,3644458,,,,,False,False,
2021-07-19,MEX,Mexico,23.624813,-102.57867,170882061,3644458,,,,,False,False,MX
2021-07-18,MDA,Moldova,46.979527,28.377195,257946,6226,250913,807,,,False,False,MD
2021-07-19,MCO,Monaco,43.738348,7.424451,170882061,3644458,,,,,False,False,MC
2021-07-19,MNG,Mongolia,46.860945,103.836986,170882061,3644458,,,,,False,False,MN
2021-07-18,MNE,Montenegro,42.710152,19.410069,100662,1623,,,22,,False,True,ME
2021-07-19,MSR,Montserrat,16.749415,-62.192741,170882061,3644458,,,,,False,False,MS
2021-07-19,MAR,Morocco,31.792306,-7.080168,170882061,3644458,,,,,False,False,MA
2021-07-19,MOZ,Mozambique,-18.670284,35.530157,170882061,3644458,,,,,False,False,MZ
2021-07-11,MMR,"Myanmar, Union of",19.163916,96.68303,180478450,3890698,0,176587752,0,0,False,False,MM
2021-07-19,NAM,Namibia,-22.965662,18.486165,170882061,3644458,,,,,False,False,NA
2021-07-19,NRU,Nauru,-0.52832,166.922157,170882061,3644458,,,,,False,False,NR
2021-07-19,NPL,Nepal,28.395056,84.127803,170882061,3644458,,,,,False,False,NP
2021-07-18,NLD,Netherlands,52.133057,5.29525,1798570,23914,0,1774656,42908,0,True,True,NL
2021-07-19,NCL,New Caledonia,-21.123889,165.846901,170882061,3644458,,,,,False,False,NC
2021-07-19,NZL,New Zealand,-40.9006,174.886,170882061,3644458,,,,,False,False,NZ
2021-07-19,NIC,Nicaragua,12.866726,-85.214298,170882061,3644458,,,,,False,False,NI
2021-07-19,NER,Niger,17.611,8.080946,170882061,3644458,,,,,False,False,NE
2021-07-19,NGA,Nigeria,9.084575,8.674252,170882061,3644458,,,,,False,False,NG
2021-07-19,NIU,Niue,-19.051631,-169.86309,170882061,3644458,,,,,False,False,
2021-07-19,MKD,North Macedonia,41.611,21.751417,170882061,3644458,,,,,False,True,MK
2021-07-11,MNP,Northern Mariana Islands,17.331835,145.47577,180478450,3890698,0,176587752,0,0,False,False,MP
2021-07-16,NOR,Norway,64.583013,17.86411,131423,796,0,130627,4654,890,False,True,NO
2021-07-19,OMN,Oman,21.516861,55.859291,170882061,3644458,,,,,False,False,OM
2021-07-19,PAK,Pakistan,30.441861,69.359766,170882061,3644458,,,,,False,False,PK
2021-07-19,PLW,Palau,5.63663,132.920475,170882061,3644458,,,,,False,False,PW
2021-07-11,PSE,Palestine,31.881464,34.894978,180478450,3890698,0,176587752,0,0,False,False,PS
2021-07-19,PAN,Panama,8.41771,-80.112777,170882061,3644458,,,,,False,False,PA
2021-07-19,PNG,Papua New Guinea,-6.48825,148.403152,170882061,3644458,,,,,False,False,PG
2021-07-19,PRY,Paraguay,-23.451389,-58.453215,170882061,3644458,,,,,False,False,PY
2021-07-19,PER,Peru,-9.181352,-75.002365,170882061,3644458,,,,,False,False,PE
2021-07-19,PHL,Philippines,12.881958,121.76654,170882061,3644458,,,,,False,False,PH
2021-07-19,POL,Poland,51.92275,19.136875,2881491,75215,2653034,153242,,,True,True,PL
2021-07-14,PRT,Portugal,39.553444,-7.839319,916580,17182,852269,47129,734,171,True,True,PT
2021-07-19,PRI,Puerto Rico,18.223285,-66.592731,170882061,3644458,,,,,False,False,PR
2021-07-19,QAT,Qatar,25.318833,51.19693,170882061,3644458,,,,,False,False,QA
2021-07-19,REU,Réunion,-21.114533,55.532062,170882061,3644458,,,,,False,False,
2021-07-19,ROU,Romania,45.947125,24.980514,1081190,34254,,,,,True,True,RO
2021-07-18,RUS,Russian Fed.,61.523111,-74.9,5958133,150535,5341231,466367,0,0,False,False,RU
2021-07-19,RWA,Rwanda,-1.94708,29.876376,170882061,3644458,,,,,False,False,RW
2021-07-19,SHN,Saint Helena,-11.953679,-10.029991,170882061,3644458,,,,,False,False,
2021-07-19,KNA,Saint Kitts and Nevis,17.257731,-62.706413,170882061,3644458,,,,,False,False,KN
2021-07-19,LCA,Saint Lucia,13.904011,-60.974176,170882061,3644458,,,,,False,False,LC
2021-07-19,SPM,Saint Pierre and Miquelon,46.966164,-56.336825,170882061,3644458,,,,,False,False,
2021-07-19,VCT,Saint Vincent and the Grenadines,12.980909,-61.287392,170882061,3644458,,,,,False,False,VC
2021-07-11,BLM,Saint-Barthélemy,17.903496,-62.831448,180478450,3890698,0,176587752,0,0,False,False,BL
2021-07-19,WSM,Samoa,-13.736573,-172.10717,170882061,3644458,,,,,False,False,
2021-07-19,SMR,San Marino,43.942973,12.460035,170882061,3644458,,,,,False,False,SM
2021-07-19,STP,Sao Tome and Principe,0.863044,6.968272,170882061,3644458,,,,,False,False,ST
2021-07-19,SAU,Saudi Arabia,23.886291,45.081139,170882061,3644458,,,,,False,False,SA
2021-07-19,SEN,Senegal,14.499454,-14.445562,170882061,3644458,,,,,False,False,SN
2021-07-19,SRB,Serbia,44.206802,20.911009,170882061,3644458,,,,,False,True,RS
2021-07-19,SYC,Seychelles,-7.018792,51.242138,170882061,3644458,,,,,False,False,SC
2021-07-19,SLE,Sierra Leone,8.464806,-11.795935,170882061,3644458,,,,,False,False,SL
2021-07-19,SGP,Singapore,1.364917,103.822872,170882061,3644458,,,,,False,False,SG
2021-07-11,SXM,Sint Maarten (Dutch part),18.04097,-63.078516,180478450,3890698,0,176587752,0,0,False,False,SX
2021-07-19,SVK,Slovakia,48.665639,19.709097,392104,12527,,,46,3,True,True,SK
2021-07-16,SVN,Slovenia,46.145528,14.974541,258223,4765,14559,238899,28,10,True,True,SI
2021-07-19,SLB,Solomon Islands,-9.220083,161.244735,170882061,3644458,,,,,False,False,SB
2021-07-19,SOM,Somalia,5.152149,46.199616,170882061,3644458,,,,,False,False,SO
2021-07-19,ZAF,South Africa,-28.48322,24.676997,170882061,3644458,,,,,False,False,ZA
2021-07-11,KOR,South Korea,35.901696,127.735889,180478450,3890698,0,176587752,0,0,False,False,KR
2021-07-19,SSD,South Sudan,7.856272,30.040413,170882061,3644458,,,,,False,False,SS
2021-07-16,ESP,Spain,39.896027,-2.487694,4100222,81096,,,5056,872,True,True,ES
2021-07-19,LKA,Sri Lanka,7.874097,80.767098,170882061,3644458,,,,,False,False,LK
2021-07-19,SDN,Sudan,15.45847,30.217636,170882061,3644458,,,,,False,False,SD
2021-07-19,SUR,Suriname,3.917846,-56.032028,170882061,3644458,,,,,False,False,SR
2021-07-15,SWE,Sweden,62.199806,17.637493,1094287,14646,,,,7594,True,True,SE
2021-07-19,CHE,Switzerland,46.815514,8.224472,701913,10948,106838,584127,116,30,False,False,CH
2021-07-19,SYR,Syrian Arab Republic,34.814902,39.056126,170882061,3644458,,,,,False,False,SY
2021-07-11,TWN,Taiwan,21.901806,121.471,180478450,3890698,0,176587752,0,0,False,False,TW
2021-07-19,TJK,Tajikistan,38.858194,71.26218,170882061,3644458,,,,,False,False,TJ
2021-07-11,TZA,Tanzania,-6.368216,34.885195,180478450,3890698,0,176587752,0,0,False,False,TZ
2021-07-19,THA,Thailand,13.036597,101.492515,170882061,3644458,,,,,False,False,TH
2021-07-19,TGO,Togo,8.621697,0.829685,170882061,3644458,,,,,False,False,TG
2021-07-19,TKL,Tokelau,-8.967362,-171.855881,170882061,3644458,,,,,False,False,
2021-07-19,TON,Tonga,-18.509023,-174.794922,170882061,3644458,,,,,False,False,
2021-07-19,TTO,Trinidad and Tobago,10.687223,-61.220852,170882061,3644458,,,,,False,False,TT
2021-07-19,TUN,Tunisia,33.892166,9.561556,170882061,3644458,,,,,False,False,TN
2021-07-03,TUR,Turkey,38.961516,35.25175,5440368,49874,5310769,79725,,,False,True,TR
2021-07-19,TKM,Turkmenistan,38.968319,59.562873,170882061,3644458,,,,,False,False,TM
2021-07-19,TCA,Turks and Caicos Islands,21.692252,-71.803756,170882061,3644458,,,,,False,False,TC
2021-07-19,TUV,Tuvalu,-8.221571,177.964073,170882061,3644458,,,,,False,False,TV
2021-07-19,UGA,Uganda,1.365188,32.304651,170882061,3644458,,,,,False,False,UG
2021-07-19,UKR,Ukraine,48.379888,31.168139,2244677,52731,2181385,10561,,,False,False,UA
2021-07-19,ARE,United Arab Emirates,24.358745,53.982494,170882061,3644458,,,,,False,False,AE
2021-07-15,GBR,United Kingdom,54.633221,-3.432277,5281108,128593,0,5152515,,,False,True,UK
2021-07-19,USA,United States of America,36.966428,-95.844032,170882061,3644458,,,,,False,False,US
2021-07-19,VIR,United States Virgin Islands,18.036736,-64.801704,170882061,3644458,,,,,False,False,VI
2021-07-19,URY,Uruguay,-32.53152,-55.758328,170882061,3644458,,,,,False,False,UY
2021-07-19,UZB,Uzbekistan,41.379722,64.564459,170882061,3644458,,,,,False,False,UZ
2021-07-19,VUT,Vanuatu,-16.661195,168.214882,170882061,3644458,,,,,False,False,VU
2021-07-11,VEN,Venezuela,6.414107,-66.578926,180478450,3890698,0,176587752,0,0,False,False,VE
2021-07-11,VNM,Vietnam,15.974222,105.806431,180478450,3890698,0,176587752,0,0,False,False,VN
2021-07-11,ESH,Western Sahara,24.221916,-12.886729,180478450,3890698,0,176587752,0,0,False,False,EH
2021-07-11,WWW,Whole Globe,0,0,180478450,3890698,0,176587752,0,0,False,False,
2021-07-19,YEM,Yemen,15.555545,48.531539,170882061,3644458,,,,,False,False,YE
2021-07-19,ZMB,Zambia,-13.151917,27.852537,170882061,3644458,,,,,False,False,ZM
2021-07-19,ZWE,Zimbabwe,-19.013286,29.146667,170882061,3644458,,,,,False,False,ZW
