Date,iso3,CountryName,lat,lon,CumulativePositive,CumulativeDeceased,CumulativeRecovered,CurrentlyPositive,Hospitalized,IntensiveCare,EUcountry,EUCPMcountry,NUTS
2021-06-22,AFG,Afghanistan,33.930445,67.678945,161894224,3461933,,,,,False,False,AF
2021-06-22,ALB,Albania,41.156986,20.181222,132496,2455,129941,100,1,1,False,False,AL
2021-06-22,DZA,Algeria,28.026875,1.65284,161894224,3461933,,,,,False,False,DZ
2021-06-22,ASM,American Samoa,-12.716089,-170.253983,161894224,3461933,,,,,False,False,
2021-06-21,AND,Andorra,42.542268,1.596865,13864,127,,,0,,False,False,AD
2021-06-22,AGO,Angola,-11.209451,17.880669,161894224,3461933,,,,,False,False,AO
2021-06-22,AIA,Anguilla,18.225119,-63.07213,161894224,3461933,,,,,False,False,AI
2021-06-22,ATG,Antigua and Barbuda,17.363183,-61.789423,161894224,3461933,,,,,False,False,AG
2021-06-22,ARG,Argentina,-38.421295,-63.587403,161894224,3461933,,,,,False,False,AR
2021-06-22,ARM,Armenia,40.066181,45.111108,161894224,3461933,,,,,False,False,AM
2021-06-22,ABW,Aruba,12.517713,-69.965112,161894224,3461933,,,,,False,False,AW
2021-06-22,AUS,Australia,-26.853388,133.275154,161894224,3461933,,,,,False,False,AU
2021-06-20,AUT,Austria,47.697542,13.349319,645609,10419,627046,8144,164,84,True,True,AT
2021-06-22,AZE,Azerbaijan,40.147396,47.572098,161894224,3461933,,,,,False,False,AZ
2021-06-22,BHS,Bahamas,24.885993,-76.709892,161894224,3461933,,,,,False,False,BS
2021-06-22,BHR,Bahrain,26.039722,50.559306,161894224,3461933,,,,,False,False,BH
2021-06-22,BGD,Bangladesh,23.68764,90.351002,161894224,3461933,,,,,False,False,BD
2021-06-22,BRB,Barbados,13.18355,-59.534649,161894224,3461933,,,,,False,False,BB
2021-06-22,BLR,Belarus,53.711111,27.973847,411551,3063,,,,,False,False,BY
2021-06-22,BEL,Belgium,50.499527,4.475402,1080035,25144,,,450,184,True,True,BE
2021-06-22,BLZ,Belize,17.192929,-88.5009,161894224,3461933,,,,,False,False,BZ
2021-06-22,BEN,Benin,9.322048,2.313138,161894224,3461933,,,,,False,False,BJ
2021-06-22,BMU,Bermuda,32.320236,-64.774022,161894224,3461933,,,,,False,False,BM
2021-06-22,BTN,Bhutan,27.515709,90.442455,161894224,3461933,,,,,False,False,BT
2021-06-13,BOL,Bolivia,-16.28835,-63.549429,170589711,3686506,0,166903205,0,0,False,False,BO
2021-06-13,BES,"Bonaire, Saint Eustatius and Saba",12.160842,-68.304383,170589711,3686506,0,166903205,0,0,False,False,BQ
2021-06-22,BIH,Bosnia and Herzegovina,43.892652,17.670584,204886,9648,180643,14595,,,False,False,BA
2021-06-22,BWA,Botswana,-22.344029,24.680158,161894224,3461933,,,,,False,False,BW
2021-06-22,BRA,Brazil,-14.242915,-53.189267,161894224,3461933,,,,,False,False,BR
2021-06-22,VGB,British Virgin Islands,18.573601,-64.492065,161894224,3461933,,,,,False,False,VG
2021-06-13,BRN,Brunei,4.525125,114.715443,170589711,3686506,0,166903205,0,0,False,False,BN
2021-06-23,BGR,Bulgaria,42.729862,25.491667,421246,18008,393636,9602,,,True,True,BG
2021-06-22,BFA,Burkina Faso,12.24185,-1.55676,161894224,3461933,,,,,False,False,BF
2021-06-22,BDI,Burundi,-3.387918,29.920395,161894224,3461933,,,,,False,False,BI
2021-06-22,CPV,Cabo Verde,16.0026,-24.014095,161894224,3461933,,,,,False,False,CV
2021-06-22,KHM,Cambodia,12.54775,104.98386,161894224,3461933,,,,,False,False,KH
2021-06-22,CMR,Cameroon,7.365302,12.343439,161894224,3461933,,,,,False,False,CM
2021-06-22,CAN,Canada,62.393303,-96.818145,161894224,3461933,,,,,False,False,CA
2021-06-22,CYM,Cayman Islands,19.512365,-80.580025,161894224,3461933,,,,,False,False,KY
2021-06-22,CAF,Central African Republic,6.614041,20.941759,161894224,3461933,,,,,False,False,CF
2021-06-22,TCD,Chad,15.445718,18.738068,161894224,3461933,,,,,False,False,TD
2021-06-22,CHL,Chile,-36.711951,-73.601704,161894224,3461933,,,,,False,False,CL
2021-06-22,CHN,China,34.668138,104.165802,161894224,3461933,,,,,False,False,CN
2021-06-22,COL,Colombia,4.577317,-74.298973,161894224,3461933,,,,,False,False,CO
2021-06-22,COM,Comoros,-11.875119,43.877007,161894224,3461933,,,,,False,False,KM
2021-06-13,COD,"Congo, Democratic Republic of the",-4.034788,21.755028,170589711,3686506,0,166903205,0,0,False,False,CD
2021-06-13,COG,"Congo, Rep. Of",-0.662071,14.927424,170589711,3686506,0,166903205,0,0,False,False,CG
2021-06-22,COK,Cook Islands,-15.983639,-159.202896,161894224,3461933,,,,,False,False,
2021-06-22,CRI,Costa Rica,9.624897,-84.253308,161894224,3461933,,,,,False,False,CR
2021-06-13,CIV,Cote d'Ivoire,7.546855,-5.547099,170589711,3686506,0,166903205,0,0,False,False,CI
2021-06-21,HRV,Croatia,44.48732,16.460306,359184,8182,350467,535,,,True,True,HR
2021-06-22,CUB,Cuba,21.527062,-79.544601,161894224,3461933,,,,,False,False,CU
2021-06-22,CUW,Curaçao,12.209208,-68.945576,161894224,3461933,,,,,False,False,CW
2021-06-21,CYP,Cyprus,35.167406,33.435499,73832,453,70334,3045,1719,,True,True,CY
2021-06-21,CZE,Czech Republic,49.800901,15.478153,1666192,30283,1633482,2427,,,True,True,CZ
2021-06-22,DNK,Denmark,56.155403,11.617223,291956,2531,285375,4050,65,0,True,True,DK
2021-06-22,DJI,Djibouti,11.808375,42.595222,161894224,3461933,,,,,False,False,DJ
2021-06-22,DMA,Dominica,15.416749,-61.36413,161894224,3461933,,,,,False,False,DM
2021-06-22,DOM,Dominican Republic,18.736509,-70.161744,161894224,3461933,,,,,False,False,DO
2021-06-13,TLS,East Timor,-8.79973,125.677345,170589711,3686506,0,166903205,0,0,False,False,TL
2021-06-22,ECU,Ecuador,-1.779901,-78.131592,161894224,3461933,,,,,False,False,EC
2021-06-22,EGY,Egypt,26.696362,30.246486,161894224,3461933,,,,,False,False,EG
2021-06-22,SLV,El Salvador,13.796873,-88.910412,161894224,3461933,,,,,False,False,SV
2021-06-22,GNQ,Equatorial Guinea,1.633925,10.341295,161894224,3461933,,,,,False,False,GQ
2021-06-22,ERI,Eritrea,15.18132,39.786709,161894224,3461933,,,,,False,False,ER
2021-06-22,EST,Estonia,58.596209,25.023778,130855,1269,,,,,True,True,EE
2021-06-22,ETH,Ethiopia,9.148086,40.493059,161894224,3461933,,,,,False,False,ET
2021-06-13,FRO,Faeroe Islands,61.897846,-6.928791,170589711,3686506,0,166903205,0,0,False,False,
2021-06-22,FLK,Falkland Islands (Malvinas),-51.800581,-59.528839,161894224,3461933,,,,,False,False,FK
2021-06-22,FJI,Fiji,-16.578041,178.416339,161894224,3461933,,,,,False,False,FJ
2021-06-17,FIN,Finland,64.952416,26.068944,94083,846,0,93237,,,True,True,FI
2021-06-22,FRA,France,46.232193,2.209667,5650315,84373,381726,5184216,10046,1560,True,True,FR
2021-06-22,GUF,French Guiana,3.951795,-53.07823,161894224,3461933,,,,,False,False,
2021-06-22,PYF,French Polynesia,-17.778572,-143.903496,161894224,3461933,,,,,False,False,PF
2021-06-22,GAB,Gabon,-0.828097,11.598909,161894224,3461933,,,,,False,False,GA
2021-06-22,GMB,Gambia,13.445411,-15.311436,161894224,3461933,,,,,False,False,GM
2021-06-22,GEO,Georgia,42.319847,43.368055,161894224,3461933,,,,,False,False,GE
2021-06-23,DEU,Germany,51.165706,10.452764,3723800,90523,3611500,21777,,,True,True,DE
2021-06-22,GHA,Ghana,7.955012,-1.03182,161894224,3461933,,,,,False,False,GH
2021-06-22,GIB,Gibraltar,36.132235,-5.352273,161894224,3461933,,,,,False,False,GI
2021-06-22,GRC,Greece,38.275283,23.810343,161894224,3461933,,,,,True,True,EL
2021-06-22,GRL,Greenland,71.702379,-42.177174,161894224,3461933,,,,,False,False,
2021-06-22,GRD,Grenada,12.152588,-61.689557,161894224,3461933,,,,,False,False,GD
2021-06-22,GLP,Guadeloupe,16.192207,-61.272382,161894224,3461933,,,,,False,False,
2021-06-22,GUM,Guam,13.446472,144.786613,161894224,3461933,,,,,False,False,GU
2021-06-22,GTM,Guatemala,15.776261,-90.229744,161894224,3461933,,,,,False,False,GT
2021-06-22,GGY,Guernsey,49.575693,-2.42318,161894224,3461933,,,,,False,False,GG
2021-06-22,GIN,Guinea,9.934887,-11.283845,161894224,3461933,,,,,False,False,GN
2021-06-13,GNB,Guinea Bissau,11.802527,-15.177029,170589711,3686506,0,166903205,0,0,False,False,GW
2021-06-22,GUY,Guyana,4.866324,-58.932507,161894224,3461933,,,,,False,False,GY
2021-06-22,HTI,Haiti,19.054426,-73.045971,161894224,3461933,,,,,False,False,HT
2021-06-22,VAT,Holy See,41.903859,12.452041,161894224,3461933,,,,,False,False,
2021-06-22,HND,Honduras,14.746333,-86.253097,161894224,3461933,,,,,False,False,HN
2021-06-22,HUN,Hungary,47.164638,19.508944,807684,29963,735937,41784,281,32,True,True,HU
2021-06-22,ISL,Iceland,64.963942,-19.021169,161894224,3461933,,,,,False,True,IS
2021-06-22,IND,India,21.125681,82.794998,161894224,3461933,,,,,False,False,IN
2021-06-22,IDN,Indonesia,-2.518722,118.015568,161894224,3461933,,,,,False,False,ID
2021-06-13,IRN,Iran,32.420653,53.682375,170589711,3686506,0,166903205,0,0,False,False,IR
2021-06-22,IRQ,Iraq,33.223737,43.685901,161894224,3461933,,,,,False,False,IQ
2021-06-22,IRL,Ireland,53.41975,-8.240472,269495,4979,,,14430,1543,True,True,IE
2021-06-22,IMN,Isle of Man,54.23782,-4.555111,161894224,3461933,,,,,False,False,IM
2021-06-22,ISR,Israel,31.418388,35.073541,161894224,3461933,,,,,False,False,IL
2021-06-22,ITA,Italy,41.873987,12.564167,4254294,127322,4054008,72964,2651,362,True,True,IT
2021-06-22,JAM,Jamaica,18.115265,-77.27348,161894224,3461933,,,,,False,False,JM
2021-06-22,JPN,Japan,34.886306,134.379711,161894224,3461933,,,,,False,False,JP
2021-06-22,JEY,Jersey,49.217445,-2.141056,161894224,3461933,,,,,False,False,JE
2021-06-22,JOR,Jordan,31.276778,37.130583,161894224,3461933,,,,,False,False,JO
2021-06-22,KAZ,Kazakhstan,48.193764,66.902264,161894224,3461933,,,,,False,False,KZ
2021-06-22,KEN,Kenya,0.170945,37.903969,161894224,3461933,,,,,False,False,KE
2021-06-22,KIR,Kiribati,-3.358734,9.670395,161894224,3461933,,,,,False,False,
2021-06-13,XKX,Kosovo,41.85637,21.803351,170589711,3686506,0,166903205,0,0,False,False,XK
2021-06-22,KWT,Kuwait,29.310278,47.493515,161894224,3461933,,,,,False,False,KW
2021-06-22,KGZ,Kyrgyzstan,41.205528,74.779888,161894224,3461933,,,,,False,False,KG
2021-06-13,LAO,Laos,18.205208,103.895043,170589711,3686506,0,166903205,0,0,False,False,LA
2021-06-22,LVA,Latvia,56.875584,24.607722,136975,2497,,,,,True,True,LV
2021-06-22,LBN,Lebanon,33.872639,35.876736,161894224,3461933,,,,,False,False,LB
2021-06-22,LSO,Lesotho,-29.620511,28.247414,161894224,3461933,,,,,False,False,LS
2021-06-22,LBR,Liberia,6.452424,-9.428598,161894224,3461933,,,,,False,False,LR
2021-06-22,LBY,Libya,26.338522,17.268816,161894224,3461933,,,,,False,False,LY
2021-06-22,LIE,Liechtenstein,47.164696,9.555,161894224,3461933,,,,,False,False,LI
2021-06-21,LTU,Lithuania,55.174112,23.906736,278466,4371,265966,8129,,,True,True,LT
2021-06-21,LUX,Luxembourg,49.815764,6.131514,70547,818,,,,,True,True,LU
2021-06-22,MDG,Madagascar,-18.777192,46.854328,161894224,3461933,,,,,False,False,MG
2021-06-22,MWI,Malawi,-13.24627,34.295385,161894224,3461933,,,,,False,False,MW
2021-06-22,MYS,Malaysia,4.109319,109.455475,161894224,3461933,,,,,False,False,MY
2021-06-22,MDV,Maldives,3.202833,73.165249,161894224,3461933,,,,,False,False,MV
2021-06-22,MLI,Mali,17.579757,-3.998823,161894224,3461933,,,,,False,False,ML
2021-06-22,MLT,Malta,35.946151,14.384612,30595,420,30148,27,,,True,True,MT
2021-06-22,MHL,Marshall Islands,10.10382,168.728363,161894224,3461933,,,,,False,False,
2021-06-22,MTQ,Martinique,14.635541,-61.022814,161894224,3461933,,,,,False,False,
2021-06-22,MRT,Mauritania,21.00681,-10.947098,161894224,3461933,,,,,False,False,MR
2021-06-22,MUS,Mauritius,-15.422486,60.006449,161894224,3461933,,,,,False,False,MU
2021-06-22,MYT,Mayotte,-12.824511,45.165455,161894224,3461933,,,,,False,False,
2021-06-22,MEX,Mexico,23.624813,-102.57867,161894224,3461933,,,,,False,False,MX
2021-06-21,MDA,Moldova,46.979527,28.377195,256187,6173,249216,798,,,False,False,MD
2021-06-22,MCO,Monaco,43.738348,7.424451,161894224,3461933,,,,,False,False,MC
2021-06-22,MNG,Mongolia,46.860945,103.836986,161894224,3461933,,,,,False,False,MN
2021-06-22,MNE,Montenegro,42.710152,19.410069,100104,1606,,,52,,False,True,ME
2021-06-22,MSR,Montserrat,16.749415,-62.192741,161894224,3461933,,,,,False,False,MS
2021-06-22,MAR,Morocco,31.792306,-7.080168,161894224,3461933,,,,,False,False,MA
2021-06-22,MOZ,Mozambique,-18.670284,35.530157,161894224,3461933,,,,,False,False,MZ
2021-06-13,MMR,"Myanmar, Union of",19.163916,96.68303,170589711,3686506,0,166903205,0,0,False,False,MM
2021-06-22,NAM,Namibia,-22.965662,18.486165,161894224,3461933,,,,,False,False,NA
2021-06-22,NRU,Nauru,-0.52832,166.922157,161894224,3461933,,,,,False,False,NR
2021-06-22,NPL,Nepal,28.395056,84.127803,161894224,3461933,,,,,False,False,NP
2021-06-19,NLD,Netherlands,52.133057,5.29525,1678282,23864,0,1654418,42681,0,True,True,NL
2021-06-22,NCL,New Caledonia,-21.123889,165.846901,161894224,3461933,,,,,False,False,NC
2021-06-22,NZL,New Zealand,-40.9006,174.886,161894224,3461933,,,,,False,False,NZ
2021-06-22,NIC,Nicaragua,12.866726,-85.214298,161894224,3461933,,,,,False,False,NI
2021-06-22,NER,Niger,17.611,8.080946,161894224,3461933,,,,,False,False,NE
2021-06-22,NGA,Nigeria,9.084575,8.674252,161894224,3461933,,,,,False,False,NG
2021-06-22,NIU,Niue,-19.051631,-169.86309,161894224,3461933,,,,,False,False,
2021-06-22,MKD,North Macedonia,41.611,21.751417,161894224,3461933,,,,,False,True,MK
2021-06-13,MNP,Northern Mariana Islands,17.331835,145.47577,170589711,3686506,0,166903205,0,0,False,False,MP
2021-06-22,NOR,Norway,64.583013,17.86411,127197,790,0,126407,4599,876,False,True,NO
2021-06-22,OMN,Oman,21.516861,55.859291,161894224,3461933,,,,,False,False,OM
2021-06-22,PAK,Pakistan,30.441861,69.359766,161894224,3461933,,,,,False,False,PK
2021-06-22,PLW,Palau,5.63663,132.920475,161894224,3461933,,,,,False,False,PW
2021-06-13,PSE,Palestine,31.881464,34.894978,170589711,3686506,0,166903205,0,0,False,False,PS
2021-06-22,PAN,Panama,8.41771,-80.112777,161894224,3461933,,,,,False,False,PA
2021-06-22,PNG,Papua New Guinea,-6.48825,148.403152,161894224,3461933,,,,,False,False,PG
2021-06-22,PRY,Paraguay,-23.451389,-58.453215,161894224,3461933,,,,,False,False,PY
2021-06-22,PER,Peru,-9.181352,-75.002365,161894224,3461933,,,,,False,False,PE
2021-06-22,PHL,Philippines,12.881958,121.76654,161894224,3461933,,,,,False,False,PH
2021-06-22,POL,Poland,51.92275,19.136875,2879030,74858,2650773,153399,,,True,True,PL
2021-06-22,PRT,Portugal,39.553444,-7.839319,866847,17074,821374,28399,450,101,True,True,PT
2021-06-22,PRI,Puerto Rico,18.223285,-66.592731,161894224,3461933,,,,,False,False,PR
2021-06-22,QAT,Qatar,25.318833,51.19693,161894224,3461933,,,,,False,False,QA
2021-06-22,REU,Réunion,-21.114533,55.532062,161894224,3461933,,,,,False,False,
2021-06-22,ROU,Romania,45.947125,24.980514,1079901,32465,,,,,True,True,RO
2021-06-22,RUS,Russian Fed.,61.523111,-74.9,5350919,132463,4889450,329006,0,0,False,False,RU
2021-06-22,RWA,Rwanda,-1.94708,29.876376,161894224,3461933,,,,,False,False,RW
2021-06-22,SHN,Saint Helena,-11.953679,-10.029991,161894224,3461933,,,,,False,False,
2021-06-22,KNA,Saint Kitts and Nevis,17.257731,-62.706413,161894224,3461933,,,,,False,False,KN
2021-06-22,LCA,Saint Lucia,13.904011,-60.974176,161894224,3461933,,,,,False,False,LC
2021-06-22,SPM,Saint Pierre and Miquelon,46.966164,-56.336825,161894224,3461933,,,,,False,False,
2021-06-22,VCT,Saint Vincent and the Grenadines,12.980909,-61.287392,161894224,3461933,,,,,False,False,VC
2021-06-13,BLM,Saint-Barthélemy,17.903496,-62.831448,170589711,3686506,0,166903205,0,0,False,False,BL
2021-06-22,WSM,Samoa,-13.736573,-172.10717,161894224,3461933,,,,,False,False,
2021-06-22,SMR,San Marino,43.942973,12.460035,161894224,3461933,,,,,False,False,SM
2021-06-22,STP,Sao Tome and Principe,0.863044,6.968272,161894224,3461933,,,,,False,False,ST
2021-06-22,SAU,Saudi Arabia,23.886291,45.081139,161894224,3461933,,,,,False,False,SA
2021-06-22,SEN,Senegal,14.499454,-14.445562,161894224,3461933,,,,,False,False,SN
2021-06-22,SRB,Serbia,44.206802,20.911009,161894224,3461933,,,,,False,True,RS
2021-06-22,SYC,Seychelles,-7.018792,51.242138,161894224,3461933,,,,,False,False,SC
2021-06-22,SLE,Sierra Leone,8.464806,-11.795935,161894224,3461933,,,,,False,False,SL
2021-06-22,SGP,Singapore,1.364917,103.822872,161894224,3461933,,,,,False,False,SG
2021-06-13,SXM,Sint Maarten (Dutch part),18.04097,-63.078516,170589711,3686506,0,166903205,0,0,False,False,SX
2021-06-22,SVK,Slovakia,48.665639,19.709097,391326,12496,,,158,15,True,True,SK
2021-06-21,SVN,Slovenia,46.145528,14.974541,257066,4742,14440,237884,92,33,True,True,SI
2021-06-22,SLB,Solomon Islands,-9.220083,161.244735,161894224,3461933,,,,,False,False,SB
2021-06-22,SOM,Somalia,5.152149,46.199616,161894224,3461933,,,,,False,False,SO
2021-06-22,ZAF,South Africa,-28.48322,24.676997,161894224,3461933,,,,,False,False,ZA
2021-06-13,KOR,South Korea,35.901696,127.735889,170589711,3686506,0,166903205,0,0,False,False,KR
2021-06-22,SSD,South Sudan,7.856272,30.040413,161894224,3461933,,,,,False,False,SS
2021-06-22,ESP,Spain,39.896027,-2.487694,3768691,80719,,,2691,728,True,True,ES
2021-06-22,LKA,Sri Lanka,7.874097,80.767098,161894224,3461933,,,,,False,False,LK
2021-06-22,SDN,Sudan,15.45847,30.217636,161894224,3461933,,,,,False,False,SD
2021-06-22,SUR,Suriname,3.917846,-56.032028,161894224,3461933,,,,,False,False,SR
2021-06-21,SWE,Sweden,62.199806,17.637493,1088014,14608,,,,7565,True,True,SE
2021-06-22,CHE,Switzerland,46.815514,8.224472,694571,10919,97534,586118,215,58,False,False,CH
2021-06-22,SYR,Syrian Arab Republic,34.814902,39.056126,161894224,3461933,,,,,False,False,SY
2021-06-13,TWN,Taiwan,21.901806,121.471,170589711,3686506,0,166903205,0,0,False,False,TW
2021-06-22,TJK,Tajikistan,38.858194,71.26218,161894224,3461933,,,,,False,False,TJ
2021-06-13,TZA,Tanzania,-6.368216,34.885195,170589711,3686506,0,166903205,0,0,False,False,TZ
2021-06-22,THA,Thailand,13.036597,101.492515,161894224,3461933,,,,,False,False,TH
2021-06-22,TGO,Togo,8.621697,0.829685,161894224,3461933,,,,,False,False,TG
2021-06-22,TKL,Tokelau,-8.967362,-171.855881,161894224,3461933,,,,,False,False,
2021-06-22,TON,Tonga,-18.509023,-174.794922,161894224,3461933,,,,,False,False,
2021-06-22,TTO,Trinidad and Tobago,10.687223,-61.220852,161894224,3461933,,,,,False,False,TT
2021-06-22,TUN,Tunisia,33.892166,9.561556,161894224,3461933,,,,,False,False,TN
2021-06-22,TUR,Turkey,38.961516,35.25175,5381736,49293,5242945,89498,,,False,True,TR
2021-06-22,TKM,Turkmenistan,38.968319,59.562873,161894224,3461933,,,,,False,False,TM
2021-06-22,TCA,Turks and Caicos Islands,21.692252,-71.803756,161894224,3461933,,,,,False,False,TC
2021-06-22,TUV,Tuvalu,-8.221571,177.964073,161894224,3461933,,,,,False,False,TV
2021-06-22,UGA,Uganda,1.365188,32.304651,161894224,3461933,,,,,False,False,UG
2021-06-22,UKR,Ukraine,48.379888,31.168139,2230142,52053,2152969,25120,,,False,False,UA
2021-06-22,ARE,United Arab Emirates,24.358745,53.982494,161894224,3461933,,,,,False,False,AE
2021-06-22,GBR,United Kingdom,54.633221,-3.432277,4651998,128008,0,4523990,,,False,True,UK
2021-06-22,USA,United States of America,36.966428,-95.844032,161894224,3461933,,,,,False,False,US
2021-06-22,VIR,United States Virgin Islands,18.036736,-64.801704,161894224,3461933,,,,,False,False,VI
2021-06-22,URY,Uruguay,-32.53152,-55.758328,161894224,3461933,,,,,False,False,UY
2021-06-22,UZB,Uzbekistan,41.379722,64.564459,161894224,3461933,,,,,False,False,UZ
2021-06-22,VUT,Vanuatu,-16.661195,168.214882,161894224,3461933,,,,,False,False,VU
2021-06-13,VEN,Venezuela,6.414107,-66.578926,170589711,3686506,0,166903205,0,0,False,False,VE
2021-06-13,VNM,Vietnam,15.974222,105.806431,170589711,3686506,0,166903205,0,0,False,False,VN
2021-06-13,ESH,Western Sahara,24.221916,-12.886729,170589711,3686506,0,166903205,0,0,False,False,EH
2021-06-13,WWW,Whole Globe,0,0,170589711,3686506,0,166903205,0,0,False,False,
2021-06-22,YEM,Yemen,15.555545,48.531539,161894224,3461933,,,,,False,False,YE
2021-06-22,ZMB,Zambia,-13.151917,27.852537,161894224,3461933,,,,,False,False,ZM
2021-06-22,ZWE,Zimbabwe,-19.013286,29.146667,161894224,3461933,,,,,False,False,ZW
