Date,iso3,CountryName,lat,lon,CumulativePositive,CumulativeDeceased,CumulativeRecovered,CurrentlyPositive,Hospitalized,IntensiveCare,EUcountry,EUCPMcountry,NUTS
2021-08-27,AFG,Afghanistan,33.930445,67.678945,191658003,3958951,,,,,False,False,AF
2021-08-29,ALB,Albania,41.156986,20.181222,144847,2492,133125,9230,96,0,False,False,AL
2021-08-27,DZA,Algeria,28.026875,1.65284,191658003,3958951,,,,,False,False,DZ
2021-08-27,ASM,American Samoa,-12.716089,-170.253983,191658003,3958951,,,,,False,False,
2021-08-27,AND,Andorra,42.542268,1.596865,15025,130,,,5,,False,False,AD
2021-08-27,AGO,Angola,-11.209451,17.880669,191658003,3958951,,,,,False,False,AO
2021-08-27,AIA,Anguilla,18.225119,-63.07213,191658003,3958951,,,,,False,False,AI
2021-08-27,ATG,Antigua and Barbuda,17.363183,-61.789423,191658003,3958951,,,,,False,False,AG
2021-08-27,ARG,Argentina,-38.421295,-63.587403,191658003,3958951,,,,,False,False,AR
2021-08-27,ARM,Armenia,40.066181,45.111108,191658003,3958951,,,,,False,False,AM
2021-08-27,ABW,Aruba,12.517713,-69.965112,191658003,3958951,,,,,False,False,AW
2021-08-27,AUS,Australia,-26.853388,133.275154,191658003,3958951,,,,,False,False,AU
2021-08-25,AUT,Austria,47.697542,13.349319,677276,10571,649268,17437,332,88,True,True,AT
2021-08-27,AZE,Azerbaijan,40.147396,47.572098,191658003,3958951,,,,,False,False,AZ
2021-08-27,BHS,Bahamas,24.885993,-76.709892,191658003,3958951,,,,,False,False,BS
2021-08-27,BHR,Bahrain,26.039722,50.559306,191658003,3958951,,,,,False,False,BH
2021-08-27,BGD,Bangladesh,23.68764,90.351002,191658003,3958951,,,,,False,False,BD
2021-08-27,BRB,Barbados,13.18355,-59.534649,191658003,3958951,,,,,False,False,BB
2021-08-27,BLR,Belarus,53.711111,27.973847,476265,3735,,,,,False,False,BY
2021-08-27,BEL,Belgium,50.499527,4.475402,1177909,25360,,,597,182,True,True,BE
2021-08-27,BLZ,Belize,17.192929,-88.5009,191658003,3958951,,,,,False,False,BZ
2021-08-27,BEN,Benin,9.322048,2.313138,191658003,3958951,,,,,False,False,BJ
2021-08-27,BMU,Bermuda,32.320236,-64.774022,191658003,3958951,,,,,False,False,BM
2021-08-27,BTN,Bhutan,27.515709,90.442455,191658003,3958951,,,,,False,False,BT
2021-08-22,BOL,Bolivia,-16.28835,-63.549429,200306837,4218795,0,196088042,0,0,False,False,BO
2021-08-22,BES,"Bonaire, Saint Eustatius and Saba",12.160842,-68.304383,200306837,4218795,0,196088042,0,0,False,False,BQ
2021-08-27,BIH,Bosnia and Herzegovina,43.892652,17.670584,212306,9785,,,,,False,False,BA
2021-08-27,BWA,Botswana,-22.344029,24.680158,191658003,3958951,,,,,False,False,BW
2021-08-27,BRA,Brazil,-14.242915,-53.189267,191658003,3958951,,,,,False,False,BR
2021-08-27,VGB,British Virgin Islands,18.573601,-64.492065,191658003,3958951,,,,,False,False,VG
2021-08-22,BRN,Brunei,4.525125,114.715443,200306837,4218795,0,196088042,0,0,False,False,BN
2021-08-30,BGR,Bulgaria,42.729862,25.491667,451599,18731,404356,28512,,,True,True,BG
2021-08-27,BFA,Burkina Faso,12.24185,-1.55676,191658003,3958951,,,,,False,False,BF
2021-08-27,BDI,Burundi,-3.387918,29.920395,191658003,3958951,,,,,False,False,BI
2021-08-27,CPV,Cabo Verde,16.0026,-24.014095,191658003,3958951,,,,,False,False,CV
2021-08-27,KHM,Cambodia,12.54775,104.98386,191658003,3958951,,,,,False,False,KH
2021-08-27,CMR,Cameroon,7.365302,12.343439,191658003,3958951,,,,,False,False,CM
2021-08-27,CAN,Canada,62.393303,-96.818145,191658003,3958951,,,,,False,False,CA
2021-08-27,CYM,Cayman Islands,19.512365,-80.580025,191658003,3958951,,,,,False,False,KY
2021-08-27,CAF,Central African Republic,6.614041,20.941759,191658003,3958951,,,,,False,False,CF
2021-08-27,TCD,Chad,15.445718,18.738068,191658003,3958951,,,,,False,False,TD
2021-08-27,CHL,Chile,-36.711951,-73.601704,191658003,3958951,,,,,False,False,CL
2021-08-27,CHN,China,34.668138,104.165802,191658003,3958951,,,,,False,False,CN
2021-08-27,COL,Colombia,4.577317,-74.298973,191658003,3958951,,,,,False,False,CO
2021-08-27,COM,Comoros,-11.875119,43.877007,191658003,3958951,,,,,False,False,KM
2021-08-22,COD,"Congo, Democratic Republic of the",-4.034788,21.755028,200306837,4218795,0,196088042,0,0,False,False,CD
2021-08-22,COG,"Congo, Rep. Of",-0.662071,14.927424,200306837,4218795,0,196088042,0,0,False,False,CG
2021-08-27,COK,Cook Islands,-15.983639,-159.202896,191658003,3958951,,,,,False,False,
2021-08-27,CRI,Costa Rica,9.624897,-84.253308,191658003,3958951,,,,,False,False,CR
2021-08-22,CIV,Cote d'Ivoire,7.546855,-5.547099,200306837,4218795,0,196088042,0,0,False,False,CI
2021-08-27,HRV,Croatia,44.48732,16.460306,372219,8318,355542,8359,,,True,True,HR
2021-08-27,CUB,Cuba,21.527062,-79.544601,191658003,3958951,,,,,False,False,CU
2021-08-27,CUW,Curaçao,12.209208,-68.945576,191658003,3958951,,,,,False,False,CW
2021-08-28,CYP,Cyprus,35.167406,33.435499,113277,578,86065,26634,2347,,True,True,CY
2021-08-28,CZE,Czech Republic,49.800901,15.478153,1678862,30402,1646369,2091,,,True,True,CZ
2021-08-27,DNK,Denmark,56.155403,11.617223,342474,2576,326650,13248,126,0,True,True,DK
2021-08-27,DJI,Djibouti,11.808375,42.595222,191658003,3958951,,,,,False,False,DJ
2021-08-27,DMA,Dominica,15.416749,-61.36413,191658003,3958951,,,,,False,False,DM
2021-08-27,DOM,Dominican Republic,18.736509,-70.161744,191658003,3958951,,,,,False,False,DO
2021-08-22,TLS,East Timor,-8.79973,125.677345,200306837,4218795,0,196088042,0,0,False,False,TL
2021-08-27,ECU,Ecuador,-1.779901,-78.131592,191658003,3958951,,,,,False,False,EC
2021-08-27,EGY,Egypt,26.696362,30.246486,191658003,3958951,,,,,False,False,EG
2021-08-27,SLV,El Salvador,13.796873,-88.910412,191658003,3958951,,,,,False,False,SV
2021-08-27,GNQ,Equatorial Guinea,1.633925,10.341295,191658003,3958951,,,,,False,False,GQ
2021-08-27,ERI,Eritrea,15.18132,39.786709,191658003,3958951,,,,,False,False,ER
2021-08-29,EST,Estonia,58.596209,25.023778,141344,,,,,,True,True,EE
2021-08-27,ETH,Ethiopia,9.148086,40.493059,191658003,3958951,,,,,False,False,ET
2021-08-22,FRO,Faeroe Islands,61.897846,-6.928791,200306837,4218795,0,196088042,0,0,False,False,
2021-08-27,FLK,Falkland Islands (Malvinas),-51.800581,-59.528839,191658003,3958951,,,,,False,False,FK
2021-08-27,FJI,Fiji,-16.578041,178.416339,191658003,3958951,,,,,False,False,FJ
2021-08-24,FIN,Finland,64.952416,26.068944,123063,846,0,122217,,,True,True,FI
2021-08-12,FRA,France,46.232193,2.209667,6216600,85963,397162,5733475,9465,1807,True,True,FR
2021-08-27,GUF,French Guiana,3.951795,-53.07823,191658003,3958951,,,,,False,False,
2021-08-27,PYF,French Polynesia,-17.778572,-143.903496,191658003,3958951,,,,,False,False,PF
2021-08-27,GAB,Gabon,-0.828097,11.598909,191658003,3958951,,,,,False,False,GA
2021-08-27,GMB,Gambia,13.445411,-15.311436,191658003,3958951,,,,,False,False,GM
2021-08-27,GEO,Georgia,42.319847,43.368055,191658003,3958951,,,,,False,False,GE
2021-08-29,DEU,Germany,51.165706,10.452764,3932549,92130,3726700,113719,,,True,True,DE
2021-08-27,GHA,Ghana,7.955012,-1.03182,191658003,3958951,,,,,False,False,GH
2021-08-27,GIB,Gibraltar,36.132235,-5.352273,191658003,3958951,,,,,False,False,GI
2021-08-27,GRC,Greece,38.275283,23.810343,191658003,3958951,,,,,True,True,EL
2021-08-27,GRL,Greenland,71.702379,-42.177174,191658003,3958951,,,,,False,False,
2021-08-27,GRD,Grenada,12.152588,-61.689557,191658003,3958951,,,,,False,False,GD
2021-08-27,GLP,Guadeloupe,16.192207,-61.272382,191658003,3958951,,,,,False,False,
2021-08-27,GUM,Guam,13.446472,144.786613,191658003,3958951,,,,,False,False,GU
2021-08-27,GTM,Guatemala,15.776261,-90.229744,191658003,3958951,,,,,False,False,GT
2021-08-27,GGY,Guernsey,49.575693,-2.42318,191658003,3958951,,,,,False,False,GG
2021-08-27,GIN,Guinea,9.934887,-11.283845,191658003,3958951,,,,,False,False,GN
2021-08-22,GNB,Guinea Bissau,11.802527,-15.177029,200306837,4218795,0,196088042,0,0,False,False,GW
2021-08-27,GUY,Guyana,4.866324,-58.932507,191658003,3958951,,,,,False,False,GY
2021-08-27,HTI,Haiti,19.054426,-73.045971,191658003,3958951,,,,,False,False,HT
2021-08-27,VAT,Holy See,41.903859,12.452041,191658003,3958951,,,,,False,False,
2021-08-27,HND,Honduras,14.746333,-86.253097,191658003,3958951,,,,,False,False,HN
2021-08-27,HUN,Hungary,47.164638,19.508944,811706,30057,775286,6363,82,8,True,True,HU
2021-08-27,ISL,Iceland,64.963942,-19.021169,191658003,3958951,,,,,False,True,IS
2021-08-27,IND,India,21.125681,82.794998,191658003,3958951,,,,,False,False,IN
2021-08-27,IDN,Indonesia,-2.518722,118.015568,191658003,3958951,,,,,False,False,ID
2021-08-22,IRN,Iran,32.420653,53.682375,200306837,4218795,0,196088042,0,0,False,False,IR
2021-08-27,IRQ,Iraq,33.223737,43.685901,191658003,3958951,,,,,False,False,IQ
2021-08-29,IRL,Ireland,53.41975,-8.240472,349773,5092,,,14430,1543,True,True,IE
2021-08-27,IMN,Isle of Man,54.23782,-4.555111,191658003,3958951,,,,,False,False,IM
2021-08-27,ISR,Israel,31.418388,35.073541,191658003,3958951,,,,,False,False,IL
2021-08-29,ITA,Italy,41.873987,12.564167,4530246,129093,4260106,141047,4658,525,True,True,IT
2021-08-27,JAM,Jamaica,18.115265,-77.27348,191658003,3958951,,,,,False,False,JM
2021-08-27,JPN,Japan,34.886306,134.379711,191658003,3958951,,,,,False,False,JP
2021-08-27,JEY,Jersey,49.217445,-2.141056,191658003,3958951,,,,,False,False,JE
2021-08-27,JOR,Jordan,31.276778,37.130583,191658003,3958951,,,,,False,False,JO
2021-08-27,KAZ,Kazakhstan,48.193764,66.902264,191658003,3958951,,,,,False,False,KZ
2021-08-27,KEN,Kenya,0.170945,37.903969,191658003,3958951,,,,,False,False,KE
2021-08-27,KIR,Kiribati,-3.358734,9.670395,191658003,3958951,,,,,False,False,
2021-08-22,XKX,Kosovo,41.85637,21.803351,200306837,4218795,0,196088042,0,0,False,False,XK
2021-08-27,KWT,Kuwait,29.310278,47.493515,191658003,3958951,,,,,False,False,KW
2021-08-27,KGZ,Kyrgyzstan,41.205528,74.779888,191658003,3958951,,,,,False,False,KG
2021-08-22,LAO,Laos,18.205208,103.895043,200306837,4218795,0,196088042,0,0,False,False,LA
2021-08-29,LVA,Latvia,56.875584,24.607722,142319,2573,,,,,True,True,LV
2021-08-27,LBN,Lebanon,33.872639,35.876736,191658003,3958951,,,,,False,False,LB
2021-08-27,LSO,Lesotho,-29.620511,28.247414,191658003,3958951,,,,,False,False,LS
2021-08-27,LBR,Liberia,6.452424,-9.428598,191658003,3958951,,,,,False,False,LR
2021-08-27,LBY,Libya,26.338522,17.268816,191658003,3958951,,,,,False,False,LY
2021-08-27,LIE,Liechtenstein,47.164696,9.555,191658003,3958951,,,,,False,False,LI
2021-08-28,LTU,Lithuania,55.174112,23.906736,297777,4539,279529,13709,,,True,True,LT
2021-08-26,LUX,Luxembourg,49.815764,6.131514,75517,830,,,,,True,True,LU
2021-08-27,MDG,Madagascar,-18.777192,46.854328,191658003,3958951,,,,,False,False,MG
2021-08-27,MWI,Malawi,-13.24627,34.295385,191658003,3958951,,,,,False,False,MW
2021-08-27,MYS,Malaysia,4.109319,109.455475,191658003,3958951,,,,,False,False,MY
2021-08-27,MDV,Maldives,3.202833,73.165249,191658003,3958951,,,,,False,False,MV
2021-08-27,MLI,Mali,17.579757,-3.998823,191658003,3958951,,,,,False,False,ML
2021-08-29,MLT,Malta,35.946151,14.384612,36089,440,34618,1031,,,True,True,MT
2021-08-27,MHL,Marshall Islands,10.10382,168.728363,191658003,3958951,,,,,False,False,
2021-08-27,MTQ,Martinique,14.635541,-61.022814,191658003,3958951,,,,,False,False,
2021-08-27,MRT,Mauritania,21.00681,-10.947098,191658003,3958951,,,,,False,False,MR
2021-08-27,MUS,Mauritius,-15.422486,60.006449,191658003,3958951,,,,,False,False,MU
2021-08-27,MYT,Mayotte,-12.824511,45.165455,191658003,3958951,,,,,False,False,
2021-08-27,MEX,Mexico,23.624813,-102.57867,191658003,3958951,,,,,False,False,MX
2021-08-28,MDA,Moldova,46.979527,28.377195,266784,6390,256882,3512,,,False,False,MD
2021-08-27,MCO,Monaco,43.738348,7.424451,191658003,3958951,,,,,False,False,MC
2021-08-27,MNG,Mongolia,46.860945,103.836986,191658003,3958951,,,,,False,False,MN
2021-08-29,MNE,Montenegro,42.710152,19.410069,114364,1716,,,0,,False,True,ME
2021-08-27,MSR,Montserrat,16.749415,-62.192741,191658003,3958951,,,,,False,False,MS
2021-08-27,MAR,Morocco,31.792306,-7.080168,191658003,3958951,,,,,False,False,MA
2021-08-27,MOZ,Mozambique,-18.670284,35.530157,191658003,3958951,,,,,False,False,MZ
2021-08-22,MMR,"Myanmar, Union of",19.163916,96.68303,200306837,4218795,0,196088042,0,0,False,False,MM
2021-08-27,NAM,Namibia,-22.965662,18.486165,191658003,3958951,,,,,False,False,NA
2021-08-27,NRU,Nauru,-0.52832,166.922157,191658003,3958951,,,,,False,False,NR
2021-08-27,NPL,Nepal,28.395056,84.127803,191658003,3958951,,,,,False,False,NP
2021-08-29,NLD,Netherlands,52.133057,5.29525,1936572,24134,0,1912438,43992,0,True,True,NL
2021-08-27,NCL,New Caledonia,-21.123889,165.846901,191658003,3958951,,,,,False,False,NC
2021-08-27,NZL,New Zealand,-40.9006,174.886,191658003,3958951,,,,,False,False,NZ
2021-08-27,NIC,Nicaragua,12.866726,-85.214298,191658003,3958951,,,,,False,False,NI
2021-08-27,NER,Niger,17.611,8.080946,191658003,3958951,,,,,False,False,NE
2021-08-27,NGA,Nigeria,9.084575,8.674252,191658003,3958951,,,,,False,False,NG
2021-08-27,NIU,Niue,-19.051631,-169.86309,191658003,3958951,,,,,False,False,
2021-08-27,MKD,North Macedonia,41.611,21.751417,191658003,3958951,,,,,False,True,MK
2021-08-22,MNP,Northern Mariana Islands,17.331835,145.47577,200306837,4218795,0,196088042,0,0,False,False,MP
2021-08-27,NOR,Norway,64.583013,17.86411,150596,814,0,149782,4848,913,False,True,NO
2021-08-27,OMN,Oman,21.516861,55.859291,191658003,3958951,,,,,False,False,OM
2021-08-27,PAK,Pakistan,30.441861,69.359766,191658003,3958951,,,,,False,False,PK
2021-08-27,PLW,Palau,5.63663,132.920475,191658003,3958951,,,,,False,False,PW
2021-08-22,PSE,Palestine,31.881464,34.894978,200306837,4218795,0,196088042,0,0,False,False,PS
2021-08-27,PAN,Panama,8.41771,-80.112777,191658003,3958951,,,,,False,False,PA
2021-08-27,PNG,Papua New Guinea,-6.48825,148.403152,191658003,3958951,,,,,False,False,PG
2021-08-27,PRY,Paraguay,-23.451389,-58.453215,191658003,3958951,,,,,False,False,PY
2021-08-27,PER,Peru,-9.181352,-75.002365,191658003,3958951,,,,,False,False,PE
2021-08-27,PHL,Philippines,12.881958,121.76654,191658003,3958951,,,,,False,False,PH
2021-08-29,POL,Poland,51.92275,19.136875,2888231,75340,2656855,156036,,,True,True,PL
2021-08-02,PRT,Portugal,39.553444,-7.839319,1884554,34551,0,1850003,0,0,True,True,PT
2021-08-27,PRI,Puerto Rico,18.223285,-66.592731,191658003,3958951,,,,,False,False,PR
2021-08-27,QAT,Qatar,25.318833,51.19693,191658003,3958951,,,,,False,False,QA
2021-08-27,REU,Réunion,-21.114533,55.532062,191658003,3958951,,,,,False,False,
2021-08-29,ROU,Romania,45.947125,24.980514,1095124,34528,,,,,True,True,RO
2021-08-29,RUS,Russian Fed.,61.523111,-74.9,6882827,183753,6148250,550824,0,0,False,False,RU
2021-08-27,RWA,Rwanda,-1.94708,29.876376,191658003,3958951,,,,,False,False,RW
2021-08-27,SHN,Saint Helena,-11.953679,-10.029991,191658003,3958951,,,,,False,False,
2021-08-27,KNA,Saint Kitts and Nevis,17.257731,-62.706413,191658003,3958951,,,,,False,False,KN
2021-08-27,LCA,Saint Lucia,13.904011,-60.974176,191658003,3958951,,,,,False,False,LC
2021-08-27,SPM,Saint Pierre and Miquelon,46.966164,-56.336825,191658003,3958951,,,,,False,False,
2021-08-27,VCT,Saint Vincent and the Grenadines,12.980909,-61.287392,191658003,3958951,,,,,False,False,VC
2021-08-22,BLM,Saint-Barthélemy,17.903496,-62.831448,200306837,4218795,0,196088042,0,0,False,False,BL
2021-08-27,WSM,Samoa,-13.736573,-172.10717,191658003,3958951,,,,,False,False,
2021-08-27,SMR,San Marino,43.942973,12.460035,191658003,3958951,,,,,False,False,SM
2021-08-27,STP,Sao Tome and Principe,0.863044,6.968272,191658003,3958951,,,,,False,False,ST
2021-08-27,SAU,Saudi Arabia,23.886291,45.081139,191658003,3958951,,,,,False,False,SA
2021-08-27,SEN,Senegal,14.499454,-14.445562,191658003,3958951,,,,,False,False,SN
2021-08-27,SRB,Serbia,44.206802,20.911009,191658003,3958951,,,,,False,True,RS
2021-08-27,SYC,Seychelles,-7.018792,51.242138,191658003,3958951,,,,,False,False,SC
2021-08-27,SLE,Sierra Leone,8.464806,-11.795935,191658003,3958951,,,,,False,False,SL
2021-08-27,SGP,Singapore,1.364917,103.822872,191658003,3958951,,,,,False,False,SG
2021-08-22,SXM,Sint Maarten (Dutch part),18.04097,-63.078516,200306837,4218795,0,196088042,0,0,False,False,SX
2021-08-29,SVK,Slovakia,48.665639,19.709097,394742,12548,,,54,9,True,True,SK
2021-08-22,SVN,Slovenia,46.145528,14.974541,263643,4772,14654,244217,75,18,True,True,SI
2021-08-27,SLB,Solomon Islands,-9.220083,161.244735,191658003,3958951,,,,,False,False,SB
2021-08-27,SOM,Somalia,5.152149,46.199616,191658003,3958951,,,,,False,False,SO
2021-08-27,ZAF,South Africa,-28.48322,24.676997,191658003,3958951,,,,,False,False,ZA
2021-08-22,KOR,South Korea,35.901696,127.735889,200306837,4218795,0,196088042,0,0,False,False,KR
2021-08-27,SSD,South Sudan,7.856272,30.040413,191658003,3958951,,,,,False,False,SS
2021-08-26,ESP,Spain,39.896027,-2.487694,4822320,83861,,,7368,1701,True,True,ES
2021-08-27,LKA,Sri Lanka,7.874097,80.767098,191658003,3958951,,,,,False,False,LK
2021-08-27,SDN,Sudan,15.45847,30.217636,191658003,3958951,,,,,False,False,SD
2021-08-27,SUR,Suriname,3.917846,-56.032028,191658003,3958951,,,,,False,False,SR
2021-08-26,SWE,Sweden,62.199806,17.637493,1123413,14685,,,,7701,True,True,SE
2021-08-29,CHE,Switzerland,46.815514,8.224472,762725,11027,112272,639426,772,204,False,False,CH
2021-08-27,SYR,Syrian Arab Republic,34.814902,39.056126,191658003,3958951,,,,,False,False,SY
2021-08-22,TWN,Taiwan,21.901806,121.471,200306837,4218795,0,196088042,0,0,False,False,TW
2021-08-27,TJK,Tajikistan,38.858194,71.26218,191658003,3958951,,,,,False,False,TJ
2021-08-22,TZA,Tanzania,-6.368216,34.885195,200306837,4218795,0,196088042,0,0,False,False,TZ
2021-08-27,THA,Thailand,13.036597,101.492515,191658003,3958951,,,,,False,False,TH
2021-08-27,TGO,Togo,8.621697,0.829685,191658003,3958951,,,,,False,False,TG
2021-08-27,TKL,Tokelau,-8.967362,-171.855881,191658003,3958951,,,,,False,False,
2021-08-27,TON,Tonga,-18.509023,-174.794922,191658003,3958951,,,,,False,False,
2021-08-27,TTO,Trinidad and Tobago,10.687223,-61.220852,191658003,3958951,,,,,False,False,TT
2021-08-27,TUN,Tunisia,33.892166,9.561556,191658003,3958951,,,,,False,False,TN
2021-08-03,TUR,Turkey,38.961516,35.25175,5770833,51519,,,,,False,True,TR
2021-08-27,TKM,Turkmenistan,38.968319,59.562873,191658003,3958951,,,,,False,False,TM
2021-08-27,TCA,Turks and Caicos Islands,21.692252,-71.803756,191658003,3958951,,,,,False,False,TC
2021-08-27,TUV,Tuvalu,-8.221571,177.964073,191658003,3958951,,,,,False,False,TV
2021-08-27,UGA,Uganda,1.365188,32.304651,191658003,3958951,,,,,False,False,UG
2021-08-29,UKR,Ukraine,48.379888,31.168139,2284191,53720,2206392,24079,,,False,False,UA
2021-08-27,ARE,United Arab Emirates,24.358745,53.982494,191658003,3958951,,,,,False,False,AE
2021-08-27,GBR,United Kingdom,54.633221,-3.432277,6666409,132243,0,6534166,,,False,True,UK
2021-08-27,USA,United States of America,36.966428,-95.844032,191658003,3958951,,,,,False,False,US
2021-08-27,VIR,United States Virgin Islands,18.036736,-64.801704,191658003,3958951,,,,,False,False,VI
2021-08-27,URY,Uruguay,-32.53152,-55.758328,191658003,3958951,,,,,False,False,UY
2021-08-27,UZB,Uzbekistan,41.379722,64.564459,191658003,3958951,,,,,False,False,UZ
2021-08-27,VUT,Vanuatu,-16.661195,168.214882,191658003,3958951,,,,,False,False,VU
2021-08-22,VEN,Venezuela,6.414107,-66.578926,200306837,4218795,0,196088042,0,0,False,False,VE
2021-08-22,VNM,Vietnam,15.974222,105.806431,200306837,4218795,0,196088042,0,0,False,False,VN
2021-08-22,ESH,Western Sahara,24.221916,-12.886729,200306837,4218795,0,196088042,0,0,False,False,EH
2021-08-22,WWW,Whole Globe,0,0,200306837,4218795,0,196088042,0,0,False,False,
2021-08-27,YEM,Yemen,15.555545,48.531539,191658003,3958951,,,,,False,False,YE
2021-08-27,ZMB,Zambia,-13.151917,27.852537,191658003,3958951,,,,,False,False,ZM
2021-08-27,ZWE,Zimbabwe,-19.013286,29.146667,191658003,3958951,,,,,False,False,ZW
